[
  {
    "title": "Railway Union Sports Club",
    "price": null,
    "categoryName": "Sports club",
    "address": "38 Park Ave, Sandymount, Dublin 4, D04 PF86, Ireland",
    "neighborhood": "Sandymount",
    "street": "38 Park Ave",
    "city": "Dublin 4",
    "postalCode": "D04 PF86",
    "state": null,
    "countryCode": "IE",
    "website": "http://www.railwayunionsc.com/",
    "phone": "+353 1 269 1783",
    "phoneUnformatted": "+35312691783",
    "claimThisBusiness": false,
    "location": {
      "lat": 53.3258405,
      "lng": -6.2124257
    },
    "totalScore": 4.4,
    "permanentlyClosed": false,
    "temporarilyClosed": false,
    "placeId": "ChIJs_bC4FIFZ0gRUpLwibEpJao",
    "categories": [
      "Sports club",
      "Bowling club",
      "Bridge club",
      "Cricket club",
      "Events Venue",
      "Football pitch",
      "Fresh food market",
      "Hockey Pitch",
      "Rugby field",
      "Tennis court"
    ],
    "fid": "0x48670552e0c2f6b3:0xaa2529b189f09252",
    "cid": "12260251403086238290",
    "reviewsCount": 309,
    "imageCategories": [],
    "scrapedAt": "2025-11-22T11:00:50.320Z",
    "googleFoodUrl": null,
    "hotelAds": [],
    "openingHours": [
      {
        "day": "Monday",
        "hours": "Closed"
      },
      {
        "day": "Tuesday",
        "hours": "Closed"
      },
      {
        "day": "Wednesday",
        "hours": "Closed"
      },
      {
        "day": "Thursday",
        "hours": "Closed"
      },
      {
        "day": "Friday",
        "hours": "5:30 to 10:30 PM"
      },
      {
        "day": "Saturday",
        "hours": "1 to 10 PM"
      },
      {
        "day": "Sunday",
        "hours": "Closed"
      }
    ],
    "peopleAlsoSearch": [],
    "placesTags": [],
    "reviewsTags": [],
    "additionalInfo": {
      "Accessibility": [
        {
          "Wheelchair-accessible car park": true
        },
        {
          "Wheelchair-accessible entrance": true
        },
        {
          "Wheelchair-accessible toilet": true
        }
      ],
      "Amenities": [
        {
          "Toilet": true
        }
      ]
    },
    "gasPrices": [],
    "url": "https://www.google.com/maps/search/?api=1&query=Railway%20Union%20Sports%20Club&query_place_id=ChIJs_bC4FIFZ0gRUpLwibEpJao",
    "searchPageUrl": "https://www.google.com/maps/search/ALL_PLACES_NO_SEARCH/@53.32460763218851,-6.22347142342424,17z",
    "searchString": "ALL_PLACES_NO_SEARCH",
    "language": "en",
    "rank": 8,
    "isAdvertisement": false,
    "kgmid": "/g/119wgdgmd"
  },
  {
    "title": "Ardreigh Bridge",
    "price": null,
    "categoryName": "Bridge",
    "address": "L8075, Shanrath West, Co. Kildare, Ireland",
    "neighborhood": "Shanrath West",
    "street": "L8075",
    "city": null,
    "postalCode": null,
    "state": "Co. Kildare",
    "countryCode": "IE",
    "claimThisBusiness": true,
    "location": {
      "lat": 52.9806408,
      "lng": -6.9665259
    },
    "totalScore": 4.3,
    "permanentlyClosed": false,
    "temporarilyClosed": false,
    "placeId": "ChIJC2T5Qn1lXUgR6Qs6RelpEPw",
    "categories": [
      "Bridge"
    ],
    "fid": "0x485d657d42f9640b:0xfc1069e9453a0be9",
    "cid": "18163133747794938857",
    "reviewsCount": 3,
    "imageCategories": [],
    "scrapedAt": "2025-11-22T11:00:51.573Z",
    "googleFoodUrl": null,
    "hotelAds": [],
    "openingHours": [],
    "peopleAlsoSearch": [],
    "placesTags": [],
    "reviewsTags": [],
    "gasPrices": [],
    "url": "https://www.google.com/maps/search/?api=1&query=Ardreigh%20Bridge&query_place_id=ChIJC2T5Qn1lXUgR6Qs6RelpEPw",
    "searchPageUrl": "https://www.google.com/maps/search/ALL_PLACES_NO_SEARCH/@52.984152550922296,-6.976708411943089,17z",
    "searchString": "ALL_PLACES_NO_SEARCH",
    "language": "en",
    "rank": 7,
    "isAdvertisement": false,
    "kgmid": "/g/11csq7wpgk"
  },
  {
    "title": "The Horse Bridge Athy",
    "price": null,
    "categoryName": "Bridge",
    "address": "Barrow Quay, Athy, Co. Kildare, Ireland",
    "neighborhood": "Athy",
    "street": "Barrow Quay",
    "city": "Athy",
    "postalCode": null,
    "state": "Co. Kildare",
    "countryCode": "IE",
    "website": "https://boattrips.ie/2022/11/17/horse-bridge/",
    "claimThisBusiness": true,
    "location": {
      "lat": 52.9880766,
      "lng": -6.9844582
    },
    "totalScore": 4.6,
    "permanentlyClosed": false,
    "temporarilyClosed": false,
    "placeId": "ChIJIxzXb5JvXUgRv6lqG5K3YnE",
    "categories": [
      "Bridge",
      "Tourist attraction"
    ],
    "fid": "0x485d6f926fd71c23:0x7162b7921b6aa9bf",
    "cid": "8170294512156584383",
    "reviewsCount": 92,
    "imageCategories": [],
    "scrapedAt": "2025-11-22T11:01:02.449Z",
    "googleFoodUrl": null,
    "hotelAds": [],
    "openingHours": [],
    "peopleAlsoSearch": [],
    "placesTags": [],
    "reviewsTags": [],
    "gasPrices": [],
    "url": "https://www.google.com/maps/search/?api=1&query=The%20Horse%20Bridge%20Athy&query_place_id=ChIJIxzXb5JvXUgRv6lqG5K3YnE",
    "searchPageUrl": "https://www.google.com/maps/search/ALL_PLACES_NO_SEARCH/@52.989322883640774,-6.993881564170729,17z",
    "searchString": "ALL_PLACES_NO_SEARCH",
    "language": "en",
    "rank": 10,
    "isAdvertisement": false,
    "kgmid": "/g/11b_1r74p_"
  },
  {
    "title": "New Bridge, Lansdowne",
    "price": null,
    "categoryName": "Bridge",
    "address": "Dublin, Ireland",
    "neighborhood": null,
    "street": null,
    "city": "Dublin",
    "postalCode": null,
    "state": null,
    "countryCode": "IE",
    "claimThisBusiness": true,
    "location": {
      "lat": 53.33439,
      "lng": -6.2255815
    },
    "totalScore": 4.7,
    "permanentlyClosed": false,
    "temporarilyClosed": false,
    "placeId": "ChIJLVE_krgPZ0gRPezK8mXV-jk",
    "categories": [
      "Bridge"
    ],
    "fid": "0x48670fb8923f512d:0x39fad565f2caec3d",
    "cid": "4177886238181354557",
    "reviewsCount": 7,
    "imageCategories": [],
    "scrapedAt": "2025-11-22T11:01:05.516Z",
    "googleFoodUrl": null,
    "hotelAds": [],
    "openingHours": [
      {
        "day": "Monday",
        "hours": "Open 24 hours"
      },
      {
        "day": "Tuesday",
        "hours": "Open 24 hours"
      },
      {
        "day": "Wednesday",
        "hours": "Open 24 hours"
      },
      {
        "day": "Thursday",
        "hours": "Open 24 hours"
      },
      {
        "day": "Friday",
        "hours": "Open 24 hours"
      },
      {
        "day": "Saturday",
        "hours": "Open 24 hours"
      },
      {
        "day": "Sunday",
        "hours": "Open 24 hours"
      }
    ],
    "peopleAlsoSearch": [],
    "placesTags": [],
    "reviewsTags": [],
    "gasPrices": [],
    "url": "https://www.google.com/maps/search/?api=1&query=New%20Bridge%2C%20Lansdowne&query_place_id=ChIJLVE_krgPZ0gRPezK8mXV-jk",
    "searchPageUrl": "https://www.google.com/maps/search/ALL_PLACES_NO_SEARCH/@53.33465797948299,-6.2257866389415,17z",
    "searchString": "ALL_PLACES_NO_SEARCH",
    "language": "en",
    "rank": 2,
    "isAdvertisement": false,
    "kgmid": "/g/11fw9fwlnv"
  },
  {
    "title": "Classon's Bridge",
    "subTitle": "Droichead Classon",
    "price": null,
    "categoryName": "Bridge",
    "address": "Churchtown Rd Lower, Rathmines Great, Dublin, Ireland",
    "neighborhood": "Rathmines Great",
    "street": "Churchtown Rd Lower",
    "city": "Dublin",
    "postalCode": null,
    "state": null,
    "countryCode": "IE",
    "claimThisBusiness": true,
    "location": {
      "lat": 53.3078029,
      "lng": -6.2545606
    },
    "totalScore": 4.2,
    "permanentlyClosed": false,
    "temporarilyClosed": false,
    "placeId": "ChIJ06DfsNIJZ0gRqaOa9ibVd2Q",
    "categories": [
      "Bridge"
    ],
    "fid": "0x486709d2b0dfa0d3:0x6477d526f69aa3a9",
    "cid": "7239489289344164777",
    "reviewsCount": 5,
    "imageCategories": [],
    "scrapedAt": "2025-11-22T11:01:33.697Z",
    "googleFoodUrl": null,
    "hotelAds": [],
    "openingHours": [
      {
        "day": "Monday",
        "hours": "Open 24 hours"
      },
      {
        "day": "Tuesday",
        "hours": "Open 24 hours"
      },
      {
        "day": "Wednesday",
        "hours": "Open 24 hours"
      },
      {
        "day": "Thursday",
        "hours": "Open 24 hours"
      },
      {
        "day": "Friday",
        "hours": "Open 24 hours"
      },
      {
        "day": "Saturday",
        "hours": "Open 24 hours"
      },
      {
        "day": "Sunday",
        "hours": "Open 24 hours"
      }
    ],
    "peopleAlsoSearch": [],
    "placesTags": [],
    "reviewsTags": [],
    "gasPrices": [],
    "url": "https://www.google.com/maps/search/?api=1&query=Classon's%20Bridge&query_place_id=ChIJ06DfsNIJZ0gRqaOa9ibVd2Q",
    "searchPageUrl": "https://www.google.com/maps/search/ALL_PLACES_NO_SEARCH/@53.31600428169865,-6.264529799093715,17z",
    "searchString": "ALL_PLACES_NO_SEARCH",
    "language": "en",
    "rank": 62,
    "isAdvertisement": false,
    "kgmid": "/m/0j3cj55"
  },
  {
    "title": "Blackhorse Bridge",
    "price": null,
    "categoryName": "Bridge",
    "address": "Tyrconnell Rd, Inchicore, Dublin, Ireland",
    "neighborhood": "Inchicore",
    "street": "Tyrconnell Rd",
    "city": "Dublin",
    "postalCode": null,
    "state": null,
    "countryCode": "IE",
    "website": "https://www.dublincity.ie/",
    "claimThisBusiness": true,
    "location": {
      "lat": 53.3343732,
      "lng": -6.328254
    },
    "totalScore": 4.5,
    "permanentlyClosed": false,
    "temporarilyClosed": false,
    "placeId": "ChIJ313bMZENZ0gRZ0ljSaTqot4",
    "categories": [
      "Bridge"
    ],
    "fid": "0x48670d9131db5ddf:0xdea2eaa449634967",
    "cid": "16042642813973907815",
    "reviewsCount": 2,
    "imageCategories": [],
    "scrapedAt": "2025-11-22T11:01:38.310Z",
    "googleFoodUrl": null,
    "hotelAds": [],
    "openingHours": [],
    "peopleAlsoSearch": [],
    "placesTags": [],
    "reviewsTags": [],
    "gasPrices": [],
    "url": "https://www.google.com/maps/search/?api=1&query=Blackhorse%20Bridge&query_place_id=ChIJ313bMZENZ0gRZ0ljSaTqot4",
    "searchPageUrl": "https://www.google.com/maps/search/ALL_PLACES_NO_SEARCH/@53.33462676288486,-6.3445893758126655,17z",
    "searchString": "ALL_PLACES_NO_SEARCH",
    "language": "en",
    "rank": 10,
    "isAdvertisement": false,
    "kgmid": "/g/11t6w_1r_2"
  },
  {
    "title": "Leinster Cricket Club",
    "price": null,
    "categoryName": "Sports complex",
    "address": "Ln. Na Réadlainne, Rathmines, Dublin 6, D06 WF96, Ireland",
    "neighborhood": "Rathmines",
    "street": "Ln. Na Réadlainne",
    "city": "Dublin 6",
    "postalCode": "D06 WF96",
    "state": null,
    "countryCode": "IE",
    "website": "http://www.lccsports.net/",
    "phone": "+353 1 556 3603",
    "phoneUnformatted": "+35315563603",
    "claimThisBusiness": false,
    "location": {
      "lat": 53.3261303,
      "lng": -6.2627162
    },
    "totalScore": 4.5,
    "permanentlyClosed": false,
    "temporarilyClosed": false,
    "placeId": "ChIJdZs4j6cOZ0gRcRc1GucjKk0",
    "categories": [
      "Sports complex",
      "Bowling club",
      "Bridge club",
      "Cricket club",
      "Squash club",
      "Table tennis club",
      "Tennis club"
    ],
    "fid": "0x48670ea78f389b75:0x4d2a23e71a351771",
    "cid": "5560296165426403185",
    "reviewsCount": 276,
    "imageCategories": [],
    "scrapedAt": "2025-11-22T11:01:46.746Z",
    "googleFoodUrl": null,
    "hotelAds": [],
    "openingHours": [
      {
        "day": "Monday",
        "hours": "8 AM to 12 AM"
      },
      {
        "day": "Tuesday",
        "hours": "8 AM to 12 AM"
      },
      {
        "day": "Wednesday",
        "hours": "8 AM to 12 AM"
      },
      {
        "day": "Thursday",
        "hours": "8 AM to 12 AM"
      },
      {
        "day": "Friday",
        "hours": "8 AM to 12 AM"
      },
      {
        "day": "Saturday",
        "hours": "8 AM to 12 AM"
      },
      {
        "day": "Sunday",
        "hours": "8 AM to 12 AM"
      }
    ],
    "peopleAlsoSearch": [],
    "placesTags": [],
    "reviewsTags": [],
    "additionalInfo": {
      "Accessibility": [
        {
          "Wheelchair accessible entrance": true
        },
        {
          "Wheelchair accessible parking lot": true
        }
      ],
      "Payments": [
        {
          "Credit cards": true
        },
        {
          "Debit cards": true
        },
        {
          "NFC mobile payments": true
        },
        {
          "Credit cards": true
        }
      ]
    },
    "gasPrices": [],
    "url": "https://www.google.com/maps/search/?api=1&query=Leinster%20Cricket%20Club&query_place_id=ChIJdZs4j6cOZ0gRcRc1GucjKk0",
    "searchPageUrl": "https://www.google.com/maps/search/ALL_PLACES_NO_SEARCH/@53.33010535,-6.276689749999999,17z",
    "searchString": "ALL_PLACES_NO_SEARCH",
    "language": "en",
    "rank": 39,
    "isAdvertisement": false,
    "kgmid": "/g/119tfntp6"
  },
  {
    "title": "O'Hanrahan Bridge",
    "price": null,
    "categoryName": "Bridge",
    "address": "New Ross, Co. Wexford, Ireland",
    "neighborhood": null,
    "street": null,
    "city": "New Ross",
    "postalCode": null,
    "state": "Co. Wexford",
    "countryCode": "IE",
    "website": "https://www.wexfordcoco.ie/",
    "claimThisBusiness": true,
    "location": {
      "lat": 52.3962044,
      "lng": -6.94719
    },
    "totalScore": 4.6,
    "permanentlyClosed": false,
    "temporarilyClosed": false,
    "placeId": "ChIJ-1Celrm2QkgR5RZ-N9qL9PI",
    "categories": [
      "Bridge"
    ],
    "fid": "0x4842b6b9969e50fb:0xf2f48bda377e16e5",
    "cid": "17506771420846102245",
    "reviewsCount": 19,
    "imageCategories": [],
    "scrapedAt": "2025-11-22T11:02:01.942Z",
    "googleFoodUrl": null,
    "hotelAds": [],
    "openingHours": [
      {
        "day": "Monday",
        "hours": "Open 24 hours"
      },
      {
        "day": "Tuesday",
        "hours": "Open 24 hours"
      },
      {
        "day": "Wednesday",
        "hours": "Open 24 hours"
      },
      {
        "day": "Thursday",
        "hours": "Open 24 hours"
      },
      {
        "day": "Friday",
        "hours": "Open 24 hours"
      },
      {
        "day": "Saturday",
        "hours": "Open 24 hours"
      },
      {
        "day": "Sunday",
        "hours": "Open 24 hours"
      }
    ],
    "peopleAlsoSearch": [],
    "placesTags": [],
    "reviewsTags": [],
    "gasPrices": [],
    "url": "https://www.google.com/maps/search/?api=1&query=O'Hanrahan%20Bridge&query_place_id=ChIJ-1Celrm2QkgR5RZ-N9qL9PI",
    "searchPageUrl": "https://www.google.com/maps/search/ALL_PLACES_NO_SEARCH/@52.398151739530405,-6.956046822748554,17z",
    "searchString": "ALL_PLACES_NO_SEARCH",
    "language": "en",
    "rank": 15,
    "isAdvertisement": false,
    "kgmid": "/g/11c564pfyy"
  },
  {
    "title": "Drumcooley, Colgans Bridge",
    "price": null,
    "categoryName": "Bridge",
    "address": "Edenderry, Co. Offaly, Ireland",
    "neighborhood": "Edenderry",
    "street": null,
    "city": "Edenderry",
    "postalCode": null,
    "state": "Co. Offaly",
    "countryCode": "IE",
    "claimThisBusiness": true,
    "location": {
      "lat": 53.3299383,
      "lng": -7.0696259
    },
    "totalScore": 5,
    "permanentlyClosed": false,
    "temporarilyClosed": false,
    "placeId": "ChIJL47Vp-abXUgRZrudJRYP6Y0",
    "categories": [
      "Bridge"
    ],
    "fid": "0x485d9be6a7d58e2f:0x8de90f16259dbb66",
    "cid": "10225721016716213094",
    "reviewsCount": 3,
    "imageCategories": [],
    "scrapedAt": "2025-11-22T11:02:12.577Z",
    "googleFoodUrl": null,
    "hotelAds": [],
    "openingHours": [],
    "peopleAlsoSearch": [],
    "placesTags": [],
    "reviewsTags": [],
    "gasPrices": [],
    "url": "https://www.google.com/maps/search/?api=1&query=Drumcooley%2C%20Colgans%20Bridge&query_place_id=ChIJL47Vp-abXUgRZrudJRYP6Y0",
    "searchPageUrl": "https://www.google.com/maps/search/ALL_PLACES_NO_SEARCH/@53.331212924132025,-7.068875012443814,17z",
    "searchString": "ALL_PLACES_NO_SEARCH",
    "language": "en",
    "rank": 1,
    "isAdvertisement": false,
    "kgmid": "/g/11smhtl3kp"
  },
  {
    "title": "Rathmore Bridge",
    "price": null,
    "categoryName": "Bridge",
    "address": "Edenderry, Co. Offaly, Ireland",
    "neighborhood": "Edenderry",
    "street": null,
    "city": null,
    "postalCode": null,
    "state": "Co. Offaly",
    "countryCode": "IE",
    "claimThisBusiness": true,
    "location": {
      "lat": 53.3321701,
      "lng": -7.0843767
    },
    "totalScore": 4,
    "permanentlyClosed": false,
    "temporarilyClosed": false,
    "placeId": "ChIJPby7PBGbXUgRTsGkyG30nu0",
    "categories": [
      "Bridge"
    ],
    "fid": "0x485d9b113cbbbc3d:0xed9ef46dc8a4c14e",
    "cid": "17122391585664057678",
    "reviewsCount": 2,
    "imageCategories": [],
    "scrapedAt": "2025-11-22T11:02:12.714Z",
    "googleFoodUrl": null,
    "hotelAds": [],
    "openingHours": [
      {
        "day": "Monday",
        "hours": "Open 24 hours"
      },
      {
        "day": "Tuesday",
        "hours": "Open 24 hours"
      },
      {
        "day": "Wednesday",
        "hours": "Open 24 hours"
      },
      {
        "day": "Thursday",
        "hours": "Open 24 hours"
      },
      {
        "day": "Friday",
        "hours": "Open 24 hours"
      },
      {
        "day": "Saturday",
        "hours": "Open 24 hours"
      },
      {
        "day": "Sunday",
        "hours": "Open 24 hours"
      }
    ],
    "peopleAlsoSearch": [],
    "placesTags": [],
    "reviewsTags": [],
    "gasPrices": [],
    "url": "https://www.google.com/maps/search/?api=1&query=Rathmore%20Bridge&query_place_id=ChIJPby7PBGbXUgRTsGkyG30nu0",
    "searchPageUrl": "https://www.google.com/maps/search/ALL_PLACES_NO_SEARCH/@53.33634163706601,-7.086050337331446,17z",
    "searchString": "ALL_PLACES_NO_SEARCH",
    "language": "en",
    "rank": 2,
    "isAdvertisement": false,
    "kgmid": "/g/11k9scbghs"
  },
  {
    "title": "Georges Bridge",
    "price": null,
    "categoryName": "Bridge",
    "address": "Drumcooly, Edenderry, Co. Offaly, Ireland",
    "neighborhood": "Drumcooly",
    "street": null,
    "city": "Edenderry",
    "postalCode": null,
    "state": "Co. Offaly",
    "countryCode": "IE",
    "claimThisBusiness": true,
    "location": {
      "lat": 53.3304984,
      "lng": -7.0742339
    },
    "totalScore": 4.5,
    "permanentlyClosed": false,
    "temporarilyClosed": false,
    "placeId": "ChIJLcvJjJabXUgRGfnul12R-Ho",
    "categories": [
      "Bridge"
    ],
    "fid": "0x485d9b968cc9cb2d:0x7af8915d97eef919",
    "cid": "8860992098018457881",
    "reviewsCount": 4,
    "imageCategories": [],
    "scrapedAt": "2025-11-22T11:02:12.714Z",
    "googleFoodUrl": null,
    "hotelAds": [],
    "openingHours": [],
    "peopleAlsoSearch": [],
    "placesTags": [],
    "reviewsTags": [],
    "gasPrices": [],
    "url": "https://www.google.com/maps/search/?api=1&query=Georges%20Bridge&query_place_id=ChIJLcvJjJabXUgRGfnul12R-Ho",
    "searchPageUrl": "https://www.google.com/maps/search/ALL_PLACES_NO_SEARCH/@53.33634163706601,-7.086050337331446,17z",
    "searchString": "ALL_PLACES_NO_SEARCH",
    "language": "en",
    "rank": 4,
    "isAdvertisement": false,
    "kgmid": "/g/11ptwfm_mx"
  },
  {
    "title": "Riverside Cottages Bridge",
    "price": null,
    "categoryName": "Bridge",
    "address": "20 Riverside Cottages, Butterfield, Dublin 6W, Co. Dublin, D6W Y161, Ireland",
    "neighborhood": "Butterfield",
    "street": "20 Riverside Cottages",
    "city": "Dublin 6W",
    "postalCode": "D6W Y161",
    "state": "Co. Dublin",
    "countryCode": "IE",
    "claimThisBusiness": true,
    "location": {
      "lat": 53.2964597,
      "lng": -6.3021954
    },
    "totalScore": 4.8,
    "permanentlyClosed": false,
    "temporarilyClosed": false,
    "placeId": "ChIJgadTIvALZ0gRVBtKd5XwrWA",
    "categories": [
      "Bridge"
    ],
    "fid": "0x48670bf02253a781:0x60adf095774a1b54",
    "cid": "6966488723354164052",
    "reviewsCount": 4,
    "imageCategories": [],
    "scrapedAt": "2025-11-22T11:02:16.133Z",
    "googleFoodUrl": null,
    "hotelAds": [],
    "openingHours": [],
    "peopleAlsoSearch": [],
    "placesTags": [],
    "reviewsTags": [],
    "gasPrices": [],
    "url": "https://www.google.com/maps/search/?api=1&query=Riverside%20Cottages%20Bridge&query_place_id=ChIJgadTIvALZ0gRVBtKd5XwrWA",
    "searchPageUrl": "https://www.google.com/maps/search/ALL_PLACES_NO_SEARCH/@53.29796553745527,-6.30241407730585,17z",
    "searchString": "ALL_PLACES_NO_SEARCH",
    "language": "en",
    "rank": 1,
    "isAdvertisement": false,
    "kgmid": "/g/11nnnmkrg6"
  },
  {
    "title": "Castle Bridge",
    "price": null,
    "categoryName": "Bridge",
    "address": "Buncrana, Co. Donegal, Ireland",
    "neighborhood": null,
    "street": null,
    "city": "Buncrana",
    "postalCode": null,
    "state": "Co. Donegal",
    "countryCode": "IE",
    "claimThisBusiness": true,
    "location": {
      "lat": 55.139539,
      "lng": -7.4620527
    },
    "totalScore": 4.6,
    "permanentlyClosed": false,
    "temporarilyClosed": false,
    "placeId": "ChIJUThJH3T7X0gRU7eQKDyUryU",
    "categories": [
      "Bridge"
    ],
    "fid": "0x485ffb741f493851:0x25af943c2890b753",
    "cid": "2715552086427219795",
    "reviewsCount": 7,
    "imageCategories": [],
    "scrapedAt": "2025-11-22T11:02:27.730Z",
    "googleFoodUrl": null,
    "hotelAds": [],
    "openingHours": [
      {
        "day": "Monday",
        "hours": "Open 24 hours"
      },
      {
        "day": "Tuesday",
        "hours": "Open 24 hours"
      },
      {
        "day": "Wednesday",
        "hours": "Open 24 hours"
      },
      {
        "day": "Thursday",
        "hours": "Open 24 hours"
      },
      {
        "day": "Friday",
        "hours": "Open 24 hours"
      },
      {
        "day": "Saturday",
        "hours": "Open 24 hours"
      },
      {
        "day": "Sunday",
        "hours": "Open 24 hours"
      }
    ],
    "peopleAlsoSearch": [],
    "placesTags": [],
    "reviewsTags": [],
    "gasPrices": [],
    "url": "https://www.google.com/maps/search/?api=1&query=Castle%20Bridge&query_place_id=ChIJUThJH3T7X0gRU7eQKDyUryU",
    "searchPageUrl": "https://www.google.com/maps/search/ALL_PLACES_NO_SEARCH/@55.13848261387593,-7.47053051101372,17z",
    "searchString": "ALL_PLACES_NO_SEARCH",
    "language": "en",
    "rank": 3,
    "isAdvertisement": false,
    "kgmid": "/g/11hffqs3lj"
  },
  {
    "title": "Alexandra Bridge",
    "price": null,
    "categoryName": "Bridge",
    "address": "Main St, Blackhall, Clane, Co. Kildare, Ireland",
    "neighborhood": "Blackhall",
    "street": "Main St",
    "city": "Clane",
    "postalCode": null,
    "state": "Co. Kildare",
    "countryCode": "IE",
    "website": "https://www.buildingsofireland.ie/buildings-search/building/11808013/alexandra-bridge-abbeyland-clane-ed-clane-kildare",
    "claimThisBusiness": true,
    "location": {
      "lat": 53.2866352,
      "lng": -6.681596
    },
    "totalScore": 5,
    "permanentlyClosed": false,
    "temporarilyClosed": false,
    "placeId": "ChIJvynzNwB5Z0gRGIGyxdRyy1I",
    "categories": [
      "Bridge"
    ],
    "fid": "0x4867790037f329bf:0x52cb72d4c5b28118",
    "cid": "5965988389557797144",
    "reviewsCount": 3,
    "imageCategories": [],
    "scrapedAt": "2025-11-22T11:02:40.358Z",
    "googleFoodUrl": null,
    "hotelAds": [],
    "openingHours": [
      {
        "day": "Monday",
        "hours": "Open 24 hours"
      },
      {
        "day": "Tuesday",
        "hours": "Open 24 hours"
      },
      {
        "day": "Wednesday",
        "hours": "Open 24 hours"
      },
      {
        "day": "Thursday",
        "hours": "Open 24 hours"
      },
      {
        "day": "Friday",
        "hours": "Open 24 hours"
      },
      {
        "day": "Saturday",
        "hours": "Open 24 hours"
      },
      {
        "day": "Sunday",
        "hours": "Open 24 hours"
      }
    ],
    "peopleAlsoSearch": [],
    "placesTags": [],
    "reviewsTags": [],
    "gasPrices": [],
    "url": "https://www.google.com/maps/search/?api=1&query=Alexandra%20Bridge&query_place_id=ChIJvynzNwB5Z0gRGIGyxdRyy1I",
    "searchPageUrl": "https://www.google.com/maps/search/ALL_PLACES_NO_SEARCH/@53.28723095653742,-6.681144564778285,17z",
    "searchString": "ALL_PLACES_NO_SEARCH",
    "language": "en",
    "rank": 2,
    "isAdvertisement": false,
    "kgmid": "/g/11lmncy780"
  },
  {
    "title": "Fermoy Bridge",
    "price": null,
    "categoryName": "Bridge",
    "address": "Rath-Healy, Co. Cork, Ireland",
    "neighborhood": "Rath-Healy",
    "street": null,
    "city": null,
    "postalCode": null,
    "state": "Co. Cork",
    "countryCode": "IE",
    "website": "https://www.bridgewebs.com/fermoy/",
    "claimThisBusiness": true,
    "location": {
      "lat": 52.1422361,
      "lng": -8.2598246
    },
    "totalScore": 5,
    "permanentlyClosed": false,
    "temporarilyClosed": false,
    "placeId": "ChIJ-5lMRXVfQ0gRb_upm0rCGXc",
    "categories": [
      "Bridge"
    ],
    "fid": "0x48435f75454c99fb:0x7719c24a9ba9fb6f",
    "cid": "8582104190626167663",
    "reviewsCount": 2,
    "imageCategories": [],
    "scrapedAt": "2025-11-22T11:02:49.942Z",
    "googleFoodUrl": null,
    "hotelAds": [],
    "openingHours": [],
    "peopleAlsoSearch": [],
    "placesTags": [],
    "reviewsTags": [],
    "gasPrices": [],
    "url": "https://www.google.com/maps/search/?api=1&query=Fermoy%20Bridge&query_place_id=ChIJ-5lMRXVfQ0gRb_upm0rCGXc",
    "searchPageUrl": "https://www.google.com/maps/search/ALL_PLACES_NO_SEARCH/@52.14207488480818,-8.271896132779716,17z",
    "searchString": "ALL_PLACES_NO_SEARCH",
    "language": "en",
    "rank": 5,
    "isAdvertisement": false,
    "kgmid": "/g/11fnn7yb_v"
  },
  {
    "title": "Fermoy Red Bridge",
    "price": null,
    "categoryName": "Bridge",
    "address": "tallow road, Rath-Healy, Fermoy, Co. Cork, Ireland",
    "neighborhood": "Rath-Healy",
    "street": "tallow road",
    "city": "Fermoy",
    "postalCode": null,
    "state": "Co. Cork",
    "countryCode": "IE",
    "website": "http://www.fermoy.ie/",
    "claimThisBusiness": true,
    "location": {
      "lat": 52.1443635,
      "lng": -8.2570462
    },
    "totalScore": 4,
    "permanentlyClosed": false,
    "temporarilyClosed": false,
    "placeId": "ChIJU1VVVUBfQ0gRg_DBC6rlMcI",
    "categories": [
      "Bridge"
    ],
    "fid": "0x48435f4055555553:0xc231e5aa0bc1f083",
    "cid": "13993218035721302147",
    "reviewsCount": 18,
    "imageCategories": [],
    "scrapedAt": "2025-11-22T11:02:53.427Z",
    "googleFoodUrl": null,
    "hotelAds": [],
    "openingHours": [],
    "peopleAlsoSearch": [],
    "placesTags": [],
    "reviewsTags": [],
    "gasPrices": [],
    "url": "https://www.google.com/maps/search/?api=1&query=Fermoy%20Red%20Bridge&query_place_id=ChIJU1VVVUBfQ0gRg_DBC6rlMcI",
    "searchPageUrl": "https://www.google.com/maps/search/ALL_PLACES_NO_SEARCH/@52.14734695442454,-8.271896132779716,17z",
    "searchString": "ALL_PLACES_NO_SEARCH",
    "language": "en",
    "rank": 11,
    "isAdvertisement": false,
    "kgmid": "/g/11g9qmhtqw"
  },
  {
    "title": "Callaghan Bridge",
    "price": null,
    "categoryName": "Bridge",
    "address": "Clonsilla Rd, Clonsilla, Co. Dublin, Ireland",
    "neighborhood": "Clonsilla",
    "street": "Clonsilla Rd",
    "city": null,
    "postalCode": null,
    "state": "Co. Dublin",
    "countryCode": "IE",
    "claimThisBusiness": true,
    "location": {
      "lat": 53.383072,
      "lng": -6.4227828
    },
    "totalScore": 5,
    "permanentlyClosed": false,
    "temporarilyClosed": false,
    "placeId": "ChIJWUHIHGJzZ0gRA2eBcuNq1RI",
    "categories": [
      "Bridge"
    ],
    "fid": "0x486773621cc84159:0x12d56ae372816703",
    "cid": "1357108387833276163",
    "reviewsCount": 2,
    "imageCategories": [],
    "scrapedAt": "2025-11-22T11:02:53.935Z",
    "googleFoodUrl": null,
    "hotelAds": [],
    "openingHours": [],
    "peopleAlsoSearch": [],
    "placesTags": [],
    "reviewsTags": [],
    "gasPrices": [],
    "url": "https://www.google.com/maps/search/?api=1&query=Callaghan%20Bridge&query_place_id=ChIJWUHIHGJzZ0gRA2eBcuNq1RI",
    "searchPageUrl": "https://www.google.com/maps/search/ALL_PLACES_NO_SEARCH/@53.39028909120972,-6.428243718754188,17z",
    "searchString": "ALL_PLACES_NO_SEARCH",
    "language": "en",
    "rank": 42,
    "isAdvertisement": false,
    "kgmid": "/g/11jgd8dyhf"
  },
  {
    "title": "Templequain Bridge",
    "price": null,
    "categoryName": "Bridge",
    "address": "Templequain, Co. Laois, Ireland",
    "neighborhood": "Templequain",
    "street": null,
    "city": null,
    "postalCode": null,
    "state": "Co. Laois",
    "countryCode": "IE",
    "claimThisBusiness": true,
    "location": {
      "lat": 52.830354,
      "lng": -7.6557264
    },
    "totalScore": 5,
    "permanentlyClosed": false,
    "temporarilyClosed": false,
    "placeId": "ChIJjYGDNRDhXEgRCZJyGhrpBz8",
    "categories": [
      "Bridge"
    ],
    "fid": "0x485ce1103583818d:0x3f07e91a1a729209",
    "cid": "4541855047548572169",
    "reviewsCount": 1,
    "imageCategories": [],
    "scrapedAt": "2025-11-22T11:03:05.607Z",
    "googleFoodUrl": null,
    "hotelAds": [],
    "openingHours": [],
    "peopleAlsoSearch": [],
    "placesTags": [],
    "reviewsTags": [],
    "gasPrices": [],
    "url": "https://www.google.com/maps/search/?api=1&query=Templequain%20Bridge&query_place_id=ChIJjYGDNRDhXEgRCZJyGhrpBz8",
    "searchPageUrl": "https://www.google.com/maps/search/ALL_PLACES_NO_SEARCH/@52.941273321193286,-7.9030281574461885,13z",
    "searchString": "ALL_PLACES_NO_SEARCH",
    "language": "en",
    "rank": 144,
    "isAdvertisement": false,
    "kgmid": "/g/11j1tp9mdk"
  },
  {
    "title": "Blessington Bridge",
    "price": null,
    "categoryName": "Bridge",
    "address": "Liffey House, Eyre St, Haylands, Newbridge, Co. Kildare, Ireland",
    "neighborhood": "Haylands",
    "street": "Liffey House, Eyre St",
    "city": "Newbridge",
    "postalCode": null,
    "state": "Co. Kildare",
    "countryCode": "IE",
    "claimThisBusiness": true,
    "location": {
      "lat": 53.1706386,
      "lng": -6.5197464
    },
    "totalScore": 4.7,
    "permanentlyClosed": false,
    "temporarilyClosed": false,
    "placeId": "ChIJtfvY8gKdZ0gR8Il_C7dIuHY",
    "categories": [
      "Bridge"
    ],
    "fid": "0x48679d02f2d8fbb5:0x76b848b70b7f89f0",
    "cid": "8554667443199379952",
    "reviewsCount": 28,
    "imageCategories": [],
    "scrapedAt": "2025-11-22T11:03:07.553Z",
    "googleFoodUrl": null,
    "hotelAds": [],
    "openingHours": [],
    "peopleAlsoSearch": [],
    "placesTags": [],
    "reviewsTags": [],
    "gasPrices": [],
    "url": "https://www.google.com/maps/search/?api=1&query=Blessington%20Bridge&query_place_id=ChIJtfvY8gKdZ0gR8Il_C7dIuHY",
    "searchPageUrl": "https://www.google.com/maps/search/ALL_PLACES_NO_SEARCH/@53.171437165349396,-6.524706750791201,17z",
    "searchString": "ALL_PLACES_NO_SEARCH",
    "language": "en",
    "rank": 1,
    "isAdvertisement": false,
    "kgmid": "/g/11d_7yl20r"
  },
  {
    "title": "Archdeacon Duggan Bridge, Kinsale",
    "price": null,
    "categoryName": "Bridge",
    "address": "R600, Ireland",
    "neighborhood": null,
    "street": "R600",
    "city": null,
    "postalCode": null,
    "state": null,
    "countryCode": "IE",
    "claimThisBusiness": true,
    "location": {
      "lat": 51.6933126,
      "lng": -8.5258858
    },
    "totalScore": 4.5,
    "permanentlyClosed": false,
    "temporarilyClosed": false,
    "placeId": "ChIJwWo0guxhREgRbxEPpbn0uqE",
    "categories": [
      "Bridge"
    ],
    "fid": "0x484461ec82346ac1:0xa1baf4b9a50f116f",
    "cid": "11653896063949934959",
    "reviewsCount": 48,
    "imageCategories": [],
    "scrapedAt": "2025-11-22T11:03:25.738Z",
    "googleFoodUrl": null,
    "hotelAds": [],
    "openingHours": [
      {
        "day": "Monday",
        "hours": "Open 24 hours"
      },
      {
        "day": "Tuesday",
        "hours": "Open 24 hours"
      },
      {
        "day": "Wednesday",
        "hours": "Open 24 hours"
      },
      {
        "day": "Thursday",
        "hours": "Open 24 hours"
      },
      {
        "day": "Friday",
        "hours": "Open 24 hours"
      },
      {
        "day": "Saturday",
        "hours": "Open 24 hours"
      },
      {
        "day": "Sunday",
        "hours": "Open 24 hours"
      }
    ],
    "peopleAlsoSearch": [],
    "placesTags": [],
    "reviewsTags": [],
    "gasPrices": [],
    "url": "https://www.google.com/maps/search/?api=1&query=Archdeacon%20Duggan%20Bridge%2C%20Kinsale&query_place_id=ChIJwWo0guxhREgRbxEPpbn0uqE",
    "searchPageUrl": "https://www.google.com/maps/search/ALL_PLACES_NO_SEARCH/@51.69902449906247,-8.533242114423778,17z",
    "searchString": "ALL_PLACES_NO_SEARCH",
    "language": "en",
    "rank": 9,
    "isAdvertisement": false,
    "kgmid": "/g/11c48by6dt"
  },
  {
    "title": "Dollymount Wooden Bridge",
    "description": "Historic, narrow wooden bridge & city landmark completed in 1907 & offering scenic views.",
    "price": null,
    "categoryName": "Bridge",
    "address": "Clontarf Rd, Dublin, Ireland",
    "neighborhood": null,
    "street": "Clontarf Rd",
    "city": "Dublin",
    "postalCode": null,
    "state": null,
    "countryCode": "IE",
    "claimThisBusiness": true,
    "location": {
      "lat": 53.3604213,
      "lng": -6.1816475
    },
    "totalScore": 4.7,
    "permanentlyClosed": false,
    "temporarilyClosed": false,
    "placeId": "ChIJ778iVIMPZ0gRd_AdbrjbQN0",
    "categories": [
      "Bridge"
    ],
    "fid": "0x48670f835422bfef:0xdd40dbb86e1df077",
    "cid": "15942984266059477111",
    "reviewsCount": 449,
    "imageCategories": [],
    "scrapedAt": "2025-11-22T11:03:28.211Z",
    "googleFoodUrl": null,
    "hotelAds": [],
    "openingHours": [
      {
        "day": "Monday",
        "hours": "Open 24 hours"
      },
      {
        "day": "Tuesday",
        "hours": "Open 24 hours"
      },
      {
        "day": "Wednesday",
        "hours": "Open 24 hours"
      },
      {
        "day": "Thursday",
        "hours": "Open 24 hours"
      },
      {
        "day": "Friday",
        "hours": "Open 24 hours"
      },
      {
        "day": "Saturday",
        "hours": "Open 24 hours"
      },
      {
        "day": "Sunday",
        "hours": "Open 24 hours"
      }
    ],
    "peopleAlsoSearch": [],
    "placesTags": [],
    "reviewsTags": [],
    "additionalInfo": {
      "Accessibility": [
        {
          "Wheelchair accessible entrance": true
        },
        {
          "Wheelchair accessible parking lot": true
        }
      ]
    },
    "gasPrices": [],
    "url": "https://www.google.com/maps/search/?api=1&query=Dollymount%20Wooden%20Bridge&query_place_id=ChIJ778iVIMPZ0gRd_AdbrjbQN0",
    "searchPageUrl": "https://www.google.com/maps/search/ALL_PLACES_NO_SEARCH/@53.36352587875745,-6.193357333163642,17z",
    "searchString": "ALL_PLACES_NO_SEARCH",
    "language": "en",
    "rank": 20,
    "isAdvertisement": false,
    "kgmid": "/g/11bwkj8k0k"
  },
  {
    "title": "Osberstown Bridge",
    "price": null,
    "categoryName": "Bridge",
    "address": "Osberstown Cottages, Osberstown, Sallins, Co. Kildare, Ireland",
    "neighborhood": "Osberstown",
    "street": "Osberstown Cottages",
    "city": "Sallins",
    "postalCode": null,
    "state": "Co. Kildare",
    "countryCode": "IE",
    "claimThisBusiness": true,
    "location": {
      "lat": 53.2409688,
      "lng": -6.6734843
    },
    "totalScore": 4.8,
    "permanentlyClosed": false,
    "temporarilyClosed": false,
    "placeId": "ChIJI4W099t4Z0gRVqKciBPwefY",
    "categories": [
      "Bridge"
    ],
    "fid": "0x486778dbf7b48523:0xf679f013889ca256",
    "cid": "17760490572199273046",
    "reviewsCount": 14,
    "imageCategories": [],
    "scrapedAt": "2025-11-22T11:03:33.070Z",
    "googleFoodUrl": null,
    "hotelAds": [],
    "openingHours": [],
    "peopleAlsoSearch": [],
    "placesTags": [],
    "reviewsTags": [],
    "gasPrices": [],
    "url": "https://www.google.com/maps/search/?api=1&query=Osberstown%20Bridge&query_place_id=ChIJI4W099t4Z0gRVqKciBPwefY",
    "searchPageUrl": "https://www.google.com/maps/search/ALL_PLACES_NO_SEARCH/@53.241963556268445,-6.674161177639679,17z",
    "searchString": "ALL_PLACES_NO_SEARCH",
    "language": "en",
    "rank": 2,
    "isAdvertisement": false,
    "kgmid": "/g/11f4qpy06c"
  },
  {
    "title": "Bull Wall",
    "price": null,
    "categoryName": "Bridge",
    "address": "River Tolka Dublin Bay, Ireland",
    "neighborhood": "Clontarf East",
    "street": "River Tolka Dublin Bay",
    "city": "Dublin",
    "postalCode": null,
    "state": null,
    "countryCode": "IE",
    "claimThisBusiness": true,
    "location": {
      "lat": 53.3576324,
      "lng": -6.1758732
    },
    "totalScore": 4.9,
    "permanentlyClosed": false,
    "temporarilyClosed": false,
    "placeId": "ChIJwSQ1DOwFZ0gReg8kpE4ZpoI",
    "categories": [
      "Bridge"
    ],
    "fid": "0x486705ec0c3524c1:0x82a6194ea4240f7a",
    "cid": "9414239896616570746",
    "reviewsCount": 50,
    "imageCategories": [],
    "scrapedAt": "2025-11-22T11:03:40.261Z",
    "googleFoodUrl": null,
    "hotelAds": [],
    "openingHours": [
      {
        "day": "Monday",
        "hours": "Open 24 hours"
      },
      {
        "day": "Tuesday",
        "hours": "Open 24 hours"
      },
      {
        "day": "Wednesday",
        "hours": "Open 24 hours"
      },
      {
        "day": "Thursday",
        "hours": "Open 24 hours"
      },
      {
        "day": "Friday",
        "hours": "Open 24 hours"
      },
      {
        "day": "Saturday",
        "hours": "Open 24 hours"
      },
      {
        "day": "Sunday",
        "hours": "Open 24 hours"
      }
    ],
    "peopleAlsoSearch": [],
    "placesTags": [],
    "reviewsTags": [],
    "additionalInfo": {
      "Accessibility": [
        {
          "Wheelchair accessible entrance": true
        },
        {
          "Wheelchair accessible parking lot": true
        }
      ]
    },
    "gasPrices": [],
    "url": "https://www.google.com/maps/search/?api=1&query=Bull%20Wall&query_place_id=ChIJwSQ1DOwFZ0gReg8kpE4ZpoI",
    "searchPageUrl": "https://www.google.com/maps/search/ALL_PLACES_NO_SEARCH/@53.364894800182846,-6.1803081675811695,17z",
    "searchString": "ALL_PLACES_NO_SEARCH",
    "language": "en",
    "rank": 17,
    "isAdvertisement": false,
    "kgmid": "/m/04ljdc2"
  },
  {
    "title": "Woodford",
    "price": null,
    "categoryName": "Bridge",
    "address": "Woodford, Listowel, Co. Kerry, Ireland",
    "neighborhood": "Woodford",
    "street": null,
    "city": "Listowel",
    "postalCode": null,
    "state": "Co. Kerry",
    "countryCode": "IE",
    "claimThisBusiness": true,
    "location": {
      "lat": 52.4415938,
      "lng": -9.473672
    },
    "totalScore": 5,
    "permanentlyClosed": false,
    "temporarilyClosed": false,
    "placeId": "ChIJi3OJprPRWkgRhYyPqOJh6m4",
    "categories": [
      "Bridge"
    ],
    "fid": "0x485ad1b3a689738b:0x6eea61e2a88f8c85",
    "cid": "7992308114840849541",
    "reviewsCount": 1,
    "imageCategories": [],
    "scrapedAt": "2025-11-22T11:03:41.392Z",
    "googleFoodUrl": null,
    "hotelAds": [],
    "openingHours": [],
    "peopleAlsoSearch": [],
    "placesTags": [],
    "reviewsTags": [],
    "gasPrices": [],
    "url": "https://www.google.com/maps/search/?api=1&query=Woodford&query_place_id=ChIJi3OJprPRWkgRhYyPqOJh6m4",
    "searchPageUrl": "https://www.google.com/maps/search/ALL_PLACES_NO_SEARCH/@52.44809332046492,-9.475142237343764,17z",
    "searchString": "ALL_PLACES_NO_SEARCH",
    "language": "en",
    "rank": 11,
    "isAdvertisement": false,
    "kgmid": "/g/11h2ngqzsv"
  },
  {
    "title": "Listowel Bridge",
    "price": null,
    "categoryName": "Bridge",
    "address": "Bridge Rd, Ballygrenane, Co. Kerry, Ireland",
    "neighborhood": "Ballygrenane",
    "street": "Bridge Rd",
    "city": null,
    "postalCode": null,
    "state": "Co. Kerry",
    "countryCode": "IE",
    "website": "https://www.buildingsofireland.ie/buildings-search/building/21400290/listowel-bridge-listowel-county-kerry",
    "claimThisBusiness": true,
    "location": {
      "lat": 52.4414758,
      "lng": -9.4786682
    },
    "totalScore": 4.7,
    "permanentlyClosed": false,
    "temporarilyClosed": false,
    "placeId": "ChIJWyHXyZPRWkgREYBGxpcSqzw",
    "categories": [
      "Bridge"
    ],
    "fid": "0x485ad193c9d7215b:0x3cab1297c6468011",
    "cid": "4371608306369069073",
    "reviewsCount": 10,
    "imageCategories": [],
    "scrapedAt": "2025-11-22T11:03:42.030Z",
    "googleFoodUrl": null,
    "hotelAds": [],
    "openingHours": [
      {
        "day": "Monday",
        "hours": "Open 24 hours"
      },
      {
        "day": "Tuesday",
        "hours": "Open 24 hours"
      },
      {
        "day": "Wednesday",
        "hours": "Open 24 hours"
      },
      {
        "day": "Thursday",
        "hours": "Open 24 hours"
      },
      {
        "day": "Friday",
        "hours": "Open 24 hours"
      },
      {
        "day": "Saturday",
        "hours": "Open 24 hours"
      },
      {
        "day": "Sunday",
        "hours": "Open 24 hours"
      }
    ],
    "peopleAlsoSearch": [],
    "placesTags": [],
    "reviewsTags": [],
    "gasPrices": [],
    "url": "https://www.google.com/maps/search/?api=1&query=Listowel%20Bridge&query_place_id=ChIJWyHXyZPRWkgREYBGxpcSqzw",
    "searchPageUrl": "https://www.google.com/maps/search/ALL_PLACES_NO_SEARCH/@52.44809332046492,-9.48373077911459,17z",
    "searchString": "ALL_PLACES_NO_SEARCH",
    "language": "en",
    "rank": 25,
    "isAdvertisement": false,
    "kgmid": "/g/11fmbk7hyn"
  },
  {
    "title": "Clogheen Bridge",
    "price": null,
    "categoryName": "Bridge",
    "address": "Clogheen, Monasterevin, Co. Kildare, Ireland",
    "neighborhood": "Clogheen",
    "street": null,
    "city": "Monasterevin",
    "postalCode": null,
    "state": "Co. Kildare",
    "countryCode": "IE",
    "claimThisBusiness": true,
    "location": {
      "lat": 53.1350873,
      "lng": -7.0736174
    },
    "totalScore": 5,
    "permanentlyClosed": false,
    "temporarilyClosed": false,
    "placeId": "ChIJ23wkzsR3XUgRAG1y71WwTe0",
    "categories": [
      "Bridge"
    ],
    "fid": "0x485d77c4ce247cdb:0xed4db055ef726d00",
    "cid": "17099517243331603712",
    "reviewsCount": 2,
    "imageCategories": [],
    "scrapedAt": "2025-11-22T11:04:13.680Z",
    "googleFoodUrl": null,
    "hotelAds": [],
    "openingHours": [],
    "peopleAlsoSearch": [],
    "placesTags": [],
    "reviewsTags": [],
    "gasPrices": [],
    "url": "https://www.google.com/maps/search/?api=1&query=Clogheen%20Bridge&query_place_id=ChIJ23wkzsR3XUgRAG1y71WwTe0",
    "searchPageUrl": "https://www.google.com/maps/search/ALL_PLACES_NO_SEARCH/@53.13722723941977,-7.075004414847351,17z",
    "searchString": "ALL_PLACES_NO_SEARCH",
    "language": "en",
    "rank": 10,
    "isAdvertisement": false,
    "kgmid": "/g/11smg_frwd"
  },
  {
    "title": "Mary Magdalene Bridge",
    "price": null,
    "categoryName": "Bridge",
    "address": "Drogheda Rd, Prioryland, Duleek, Co. Meath, Ireland",
    "neighborhood": "Prioryland",
    "street": "Drogheda Rd",
    "city": "Duleek",
    "postalCode": null,
    "state": "Co. Meath",
    "countryCode": "IE",
    "claimThisBusiness": true,
    "location": {
      "lat": 53.6543802,
      "lng": -6.4118776
    },
    "totalScore": 4,
    "permanentlyClosed": false,
    "temporarilyClosed": false,
    "placeId": "ChIJN3ETcp45Z0gR9yHYjiTPetI",
    "categories": [
      "Bridge"
    ],
    "fid": "0x4867399e72137137:0xd27acf248ed821f7",
    "cid": "15166662451045868023",
    "reviewsCount": 4,
    "imageCategories": [],
    "scrapedAt": "2025-11-22T11:04:18.360Z",
    "googleFoodUrl": null,
    "hotelAds": [],
    "openingHours": [],
    "peopleAlsoSearch": [],
    "placesTags": [],
    "reviewsTags": [],
    "gasPrices": [],
    "url": "https://www.google.com/maps/search/?api=1&query=Mary%20Magdalene%20Bridge&query_place_id=ChIJN3ETcp45Z0gR9yHYjiTPetI",
    "searchPageUrl": "https://www.google.com/maps/search/ALL_PLACES_NO_SEARCH/@53.653791417740976,-6.419043803305499,17z",
    "searchString": "ALL_PLACES_NO_SEARCH",
    "language": "en",
    "rank": 3,
    "isAdvertisement": false,
    "kgmid": "/g/11ghn6hyjk"
  },
  {
    "title": "Tom Clarke Bridge",
    "subTitle": "Droichead an Nascbhóthair Thoir",
    "price": null,
    "categoryName": "Bridge",
    "address": "R131, Dublin, Ireland",
    "neighborhood": null,
    "street": "R131",
    "city": "Dublin",
    "postalCode": null,
    "state": null,
    "countryCode": "IE",
    "phone": "+353 1 668 2888",
    "phoneUnformatted": "+35316682888",
    "claimThisBusiness": true,
    "location": {
      "lat": 53.3457733,
      "lng": -6.2274248
    },
    "totalScore": 4.3,
    "permanentlyClosed": false,
    "temporarilyClosed": false,
    "placeId": "ChIJY91Oke8OZ0gRuHYGbcz3BOg",
    "categories": [
      "Bridge"
    ],
    "fid": "0x48670eef914edd63:0xe804f7cc6d0676b8",
    "cid": "16718760174080652984",
    "reviewsCount": 143,
    "imageCategories": [],
    "scrapedAt": "2025-11-22T11:04:30.888Z",
    "googleFoodUrl": null,
    "hotelAds": [],
    "openingHours": [
      {
        "day": "Monday",
        "hours": "Open 24 hours"
      },
      {
        "day": "Tuesday",
        "hours": "Open 24 hours"
      },
      {
        "day": "Wednesday",
        "hours": "Open 24 hours"
      },
      {
        "day": "Thursday",
        "hours": "Open 24 hours"
      },
      {
        "day": "Friday",
        "hours": "Open 24 hours"
      },
      {
        "day": "Saturday",
        "hours": "Open 24 hours"
      },
      {
        "day": "Sunday",
        "hours": "Open 24 hours"
      }
    ],
    "peopleAlsoSearch": [],
    "placesTags": [],
    "reviewsTags": [],
    "additionalInfo": {
      "Accessibility": [
        {
          "Wheelchair accessible entrance": true
        }
      ]
    },
    "gasPrices": [],
    "url": "https://www.google.com/maps/search/?api=1&query=Tom%20Clarke%20Bridge&query_place_id=ChIJY91Oke8OZ0gRuHYGbcz3BOg",
    "searchPageUrl": "https://www.google.com/maps/search/ALL_PLACES_NO_SEARCH/@53.35515586789034,-6.240950222831823,17z",
    "searchString": "ALL_PLACES_NO_SEARCH",
    "language": "en",
    "rank": 111,
    "isAdvertisement": false,
    "kgmid": "/m/021t5g"
  },
  {
    "title": "Cherrywood Viaduct",
    "price": null,
    "categoryName": "Bridge",
    "address": "107-75 Cherrywood Rd, Cherrywood, Dublin, D18 R9H3, Ireland",
    "neighborhood": "Cherrywood",
    "street": "107-75 Cherrywood Rd",
    "city": "Dublin",
    "postalCode": "D18 R9H3",
    "state": null,
    "countryCode": "IE",
    "claimThisBusiness": true,
    "location": {
      "lat": 53.2414511,
      "lng": -6.1372084
    },
    "totalScore": 4.5,
    "permanentlyClosed": false,
    "temporarilyClosed": false,
    "placeId": "ChIJpRfRHE0JZ0gRhdDIwtAsxdw",
    "categories": [
      "Bridge"
    ],
    "fid": "0x4867094d1cd117a5:0xdcc52cd0c2c8d085",
    "cid": "15908170533888905349",
    "reviewsCount": 6,
    "imageCategories": [],
    "scrapedAt": "2025-11-22T11:04:44.732Z",
    "googleFoodUrl": null,
    "hotelAds": [],
    "openingHours": [],
    "peopleAlsoSearch": [],
    "placesTags": [],
    "reviewsTags": [],
    "gasPrices": [],
    "url": "https://www.google.com/maps/search/?api=1&query=Cherrywood%20Viaduct&query_place_id=ChIJpRfRHE0JZ0gRhdDIwtAsxdw",
    "searchPageUrl": "https://www.google.com/maps/search/ALL_PLACES_NO_SEARCH/@53.24379891867223,-6.141538191520262,17z",
    "searchString": "ALL_PLACES_NO_SEARCH",
    "language": "en",
    "rank": 20,
    "isAdvertisement": false,
    "kgmid": "/g/11n8yb2k0r"
  },
  {
    "title": "Salmon Weir Bridge",
    "price": null,
    "categoryName": "Bridge",
    "address": "University Rd, Galway, Ireland",
    "neighborhood": null,
    "street": "University Rd",
    "city": "Galway",
    "postalCode": null,
    "state": null,
    "countryCode": "IE",
    "website": "https://www.galwaycity.ie/salmon-weir-pedestrian-cycle-bridge",
    "claimThisBusiness": true,
    "location": {
      "lat": 53.2755445,
      "lng": -9.0561535
    },
    "totalScore": 4.6,
    "permanentlyClosed": false,
    "temporarilyClosed": false,
    "placeId": "ChIJuTgpR_CWW0gRmFLcGPmrH6Y",
    "categories": [
      "Bridge",
      "Tourist attraction"
    ],
    "fid": "0x485b96f0472938b9:0xa61fabf918dc5298",
    "cid": "11970475420926366360",
    "reviewsCount": 236,
    "imageCategories": [],
    "scrapedAt": "2025-11-22T11:05:29.648Z",
    "googleFoodUrl": null,
    "hotelAds": [],
    "openingHours": [
      {
        "day": "Monday",
        "hours": "Open 24 hours"
      },
      {
        "day": "Tuesday",
        "hours": "Open 24 hours"
      },
      {
        "day": "Wednesday",
        "hours": "Open 24 hours"
      },
      {
        "day": "Thursday",
        "hours": "Open 24 hours"
      },
      {
        "day": "Friday",
        "hours": "Open 24 hours"
      },
      {
        "day": "Saturday",
        "hours": "Open 24 hours"
      },
      {
        "day": "Sunday",
        "hours": "Open 24 hours"
      }
    ],
    "peopleAlsoSearch": [],
    "placesTags": [],
    "reviewsTags": [],
    "additionalInfo": {
      "Accessibility": [
        {
          "Wheelchair accessible entrance": true
        }
      ]
    },
    "gasPrices": [],
    "url": "https://www.google.com/maps/search/?api=1&query=Salmon%20Weir%20Bridge&query_place_id=ChIJuTgpR_CWW0gRmFLcGPmrH6Y",
    "searchPageUrl": "https://www.google.com/maps/search/ALL_PLACES_NO_SEARCH/@53.28487974639352,-9.062688872016304,17z",
    "searchString": "ALL_PLACES_NO_SEARCH",
    "language": "en",
    "rank": 92,
    "isAdvertisement": false,
    "kgmid": "/g/11b8t6y4s1"
  },
  {
    "title": "Galway Bridge Centre",
    "price": null,
    "categoryName": "Bridge club",
    "address": "St Mary's Rd, Galway, Ireland",
    "neighborhood": null,
    "street": "St Mary's Rd",
    "city": "Galway",
    "postalCode": null,
    "state": null,
    "countryCode": "IE",
    "phone": "+353 86 879 1743",
    "phoneUnformatted": "+353868791743",
    "claimThisBusiness": true,
    "location": {
      "lat": 53.270821,
      "lng": -9.063355
    },
    "totalScore": 4.8,
    "permanentlyClosed": false,
    "temporarilyClosed": false,
    "placeId": "ChIJScg5q_mWW0gRCA9tElokYvg",
    "categories": [
      "Bridge club"
    ],
    "fid": "0x485b96f9ab39c849:0xf862245a126d0f08",
    "cid": "17897907838398566152",
    "reviewsCount": 13,
    "imageCategories": [],
    "scrapedAt": "2025-11-22T11:05:32.961Z",
    "googleFoodUrl": null,
    "hotelAds": [],
    "openingHours": [
      {
        "day": "Monday",
        "hours": "9 AM to 11 PM"
      },
      {
        "day": "Tuesday",
        "hours": "9 AM to 11 PM"
      },
      {
        "day": "Wednesday",
        "hours": "9 AM to 11 PM"
      },
      {
        "day": "Thursday",
        "hours": "9 AM to 11 PM"
      },
      {
        "day": "Friday",
        "hours": "9 AM to 11 PM"
      },
      {
        "day": "Saturday",
        "hours": "9 AM to 11 PM"
      },
      {
        "day": "Sunday",
        "hours": "9 AM to 11 PM"
      }
    ],
    "peopleAlsoSearch": [],
    "placesTags": [],
    "reviewsTags": [],
    "additionalInfo": {
      "Accessibility": [
        {
          "Wheelchair accessible entrance": true
        },
        {
          "Wheelchair accessible parking lot": true
        }
      ]
    },
    "gasPrices": [],
    "url": "https://www.google.com/maps/search/?api=1&query=Galway%20Bridge%20Centre&query_place_id=ChIJScg5q_mWW0gRCA9tElokYvg",
    "searchPageUrl": "https://www.google.com/maps/search/ALL_PLACES_NO_SEARCH/@53.27460585360648,-9.07127925,17z",
    "searchString": "ALL_PLACES_NO_SEARCH",
    "language": "en",
    "rank": 44,
    "isAdvertisement": false,
    "kgmid": "/g/125_yfz_j"
  },
  {
    "title": "Spencer Bridge",
    "price": null,
    "categoryName": "Bridge",
    "address": "Grand Canal House, Columcille St, Mullantine, Tullamore, Co. Offaly, Ireland",
    "neighborhood": "Mullantine",
    "street": "Grand Canal House, Columcille St",
    "city": "Tullamore",
    "postalCode": null,
    "state": "Co. Offaly",
    "countryCode": "IE",
    "claimThisBusiness": true,
    "location": {
      "lat": 53.2167887,
      "lng": -6.999857
    },
    "totalScore": 4.6,
    "permanentlyClosed": false,
    "temporarilyClosed": false,
    "placeId": "ChIJN2L5psKCXUgRG6MNyvWg2Aw",
    "categories": [
      "Bridge"
    ],
    "fid": "0x485d82c2a6f96237:0xcd8a0f5ca0da31b",
    "cid": "925666700941959963",
    "reviewsCount": 19,
    "imageCategories": [],
    "scrapedAt": "2025-11-22T11:05:49.416Z",
    "googleFoodUrl": null,
    "hotelAds": [],
    "openingHours": [],
    "peopleAlsoSearch": [],
    "placesTags": [],
    "reviewsTags": [],
    "gasPrices": [],
    "url": "https://www.google.com/maps/search/?api=1&query=Spencer%20Bridge&query_place_id=ChIJN2L5psKCXUgRG6MNyvWg2Aw",
    "searchPageUrl": "https://www.google.com/maps/search/ALL_PLACES_NO_SEARCH/@53.22236827234848,-7.00884513404637,17z",
    "searchString": "ALL_PLACES_NO_SEARCH",
    "language": "en",
    "rank": 25,
    "isAdvertisement": false,
    "kgmid": "/g/11g9mfzsck"
  },
  {
    "title": "Rathangan Bridge",
    "price": null,
    "categoryName": "Bridge",
    "address": "15 Bridge St, Rathangan, Co. Kildare, R51 YY33, Ireland",
    "neighborhood": "Rathangan",
    "street": "15 Bridge St",
    "city": null,
    "postalCode": "R51 YY33",
    "state": "Co. Kildare",
    "countryCode": "IE",
    "claimThisBusiness": true,
    "location": {
      "lat": 53.2195761,
      "lng": -6.9919821
    },
    "totalScore": 5,
    "permanentlyClosed": false,
    "temporarilyClosed": false,
    "placeId": "ChIJP5kTvLGDXUgRJnsDESjQWbE",
    "categories": [
      "Bridge"
    ],
    "fid": "0x485d83b1bc13993f:0xb159d02811037b26",
    "cid": "12779474288143203110",
    "reviewsCount": 3,
    "imageCategories": [],
    "scrapedAt": "2025-11-22T11:05:53.142Z",
    "googleFoodUrl": null,
    "hotelAds": [],
    "openingHours": [],
    "peopleAlsoSearch": [],
    "placesTags": [],
    "reviewsTags": [],
    "gasPrices": [],
    "url": "https://www.google.com/maps/search/?api=1&query=Rathangan%20Bridge&query_place_id=ChIJP5kTvLGDXUgRJnsDESjQWbE",
    "searchPageUrl": "https://www.google.com/maps/search/ALL_PLACES_NO_SEARCH/@53.22236827234848,-6.991667555317876,17z",
    "searchString": "ALL_PLACES_NO_SEARCH",
    "language": "en",
    "rank": 5,
    "isAdvertisement": false,
    "kgmid": "/g/11ptvgtyd6"
  },
  {
    "title": "Railway Viaduct",
    "price": null,
    "categoryName": "Bridge",
    "address": "Jerpointabbey, Thomastown, Co. Kilkenny, Ireland",
    "neighborhood": "Jerpointabbey",
    "street": null,
    "city": "Thomastown",
    "postalCode": null,
    "state": "Co. Kilkenny",
    "countryCode": "IE",
    "claimThisBusiness": true,
    "location": {
      "lat": 52.5178221,
      "lng": -7.1525384
    },
    "totalScore": 4.3,
    "permanentlyClosed": false,
    "temporarilyClosed": false,
    "placeId": "ChIJd2FO4241XUgRhQC2HvixOeg",
    "categories": [
      "Bridge"
    ],
    "fid": "0x485d356ee34e6177:0xe839b1f81eb60085",
    "cid": "16733601569697038469",
    "reviewsCount": 3,
    "imageCategories": [],
    "scrapedAt": "2025-11-22T11:05:57.361Z",
    "googleFoodUrl": null,
    "hotelAds": [],
    "openingHours": [],
    "peopleAlsoSearch": [],
    "placesTags": [],
    "reviewsTags": [],
    "gasPrices": [],
    "url": "https://www.google.com/maps/search/?api=1&query=Railway%20Viaduct&query_place_id=ChIJd2FO4241XUgRhQC2HvixOeg",
    "searchPageUrl": "https://www.google.com/maps/search/ALL_PLACES_NO_SEARCH/@52.5171197188943,-7.161035491935166,17z",
    "searchString": "ALL_PLACES_NO_SEARCH",
    "language": "en",
    "rank": 1,
    "isAdvertisement": false,
    "kgmid": "/g/11grt3ycfb"
  },
  {
    "title": "Aodh Rua Bridge",
    "price": null,
    "categoryName": "Bridge",
    "address": "River Erne, Ireland, Co. Donegal, Ireland",
    "neighborhood": null,
    "street": "River Erne, Ireland",
    "city": null,
    "postalCode": null,
    "state": "Co. Donegal",
    "countryCode": "IE",
    "claimThisBusiness": true,
    "location": {
      "lat": 54.5001852,
      "lng": -8.182429
    },
    "totalScore": 5,
    "permanentlyClosed": false,
    "temporarilyClosed": false,
    "placeId": "ChIJl3y-UrH_XkgRSNc9E1LLQZs",
    "categories": [
      "Bridge"
    ],
    "fid": "0x485effb152be7c97:0x9b41cb52133dd748",
    "cid": "11187446502735599432",
    "reviewsCount": 1,
    "imageCategories": [],
    "scrapedAt": "2025-11-22T11:06:36.084Z",
    "googleFoodUrl": null,
    "hotelAds": [],
    "openingHours": [
      {
        "day": "Monday",
        "hours": "Open 24 hours"
      },
      {
        "day": "Tuesday",
        "hours": "Open 24 hours"
      },
      {
        "day": "Wednesday",
        "hours": "Open 24 hours"
      },
      {
        "day": "Thursday",
        "hours": "Open 24 hours"
      },
      {
        "day": "Friday",
        "hours": "Open 24 hours"
      },
      {
        "day": "Saturday",
        "hours": "Open 24 hours"
      },
      {
        "day": "Sunday",
        "hours": "Open 24 hours"
      }
    ],
    "peopleAlsoSearch": [],
    "placesTags": [],
    "reviewsTags": [],
    "gasPrices": [],
    "url": "https://www.google.com/maps/search/?api=1&query=Aodh%20Rua%20Bridge&query_place_id=ChIJl3y-UrH_XkgRSNc9E1LLQZs",
    "searchPageUrl": "https://www.google.com/maps/search/ALL_PLACES_NO_SEARCH/@54.501561853247516,-8.192187720676676,17z",
    "searchString": "ALL_PLACES_NO_SEARCH",
    "language": "en",
    "rank": 18,
    "isAdvertisement": false,
    "kgmid": "/g/11kmcrb0kc"
  },
  {
    "title": "Our Lady's Bridge (Kenmare)",
    "price": null,
    "categoryName": "Bridge",
    "address": "N71, Co. Kerry, Ireland",
    "neighborhood": null,
    "street": "N71",
    "city": null,
    "postalCode": null,
    "state": "Co. Kerry",
    "countryCode": "IE",
    "website": "https://www.kenmare.ie/kenmare-item/kenmare-suspension-bridge/",
    "claimThisBusiness": true,
    "location": {
      "lat": 51.8710616,
      "lng": -9.5819302
    },
    "totalScore": 4.8,
    "permanentlyClosed": false,
    "temporarilyClosed": false,
    "placeId": "ChIJKemXXrFsRUgRXDuxNekrcCI",
    "categories": [
      "Bridge"
    ],
    "fid": "0x48456cb15e97e929:0x22702be935b13b5c",
    "cid": "2481531675309325148",
    "reviewsCount": 36,
    "imageCategories": [],
    "scrapedAt": "2025-11-22T11:06:36.079Z",
    "googleFoodUrl": null,
    "hotelAds": [],
    "openingHours": [
      {
        "day": "Monday",
        "hours": "Open 24 hours"
      },
      {
        "day": "Tuesday",
        "hours": "Open 24 hours"
      },
      {
        "day": "Wednesday",
        "hours": "Open 24 hours"
      },
      {
        "day": "Thursday",
        "hours": "Open 24 hours"
      },
      {
        "day": "Friday",
        "hours": "Open 24 hours"
      },
      {
        "day": "Saturday",
        "hours": "Open 24 hours"
      },
      {
        "day": "Sunday",
        "hours": "Open 24 hours"
      }
    ],
    "peopleAlsoSearch": [],
    "placesTags": [],
    "reviewsTags": [],
    "gasPrices": [],
    "url": "https://www.google.com/maps/search/?api=1&query=Our%20Lady's%20Bridge%20(Kenmare)&query_place_id=ChIJKemXXrFsRUgRXDuxNekrcCI",
    "searchPageUrl": "https://www.google.com/maps/search/ALL_PLACES_NO_SEARCH/@51.870382483886424,-9.58583824683375,17z",
    "searchString": "ALL_PLACES_NO_SEARCH",
    "language": "en",
    "rank": 1,
    "isAdvertisement": false,
    "kgmid": "/g/11cs1s9kpy"
  },
  {
    "title": "Knocksink Bridge",
    "price": null,
    "categoryName": "Bridge",
    "address": "R117, Monastery, Co. Wicklow, Ireland",
    "neighborhood": "Monastery",
    "street": "R117",
    "city": null,
    "postalCode": null,
    "state": "Co. Wicklow",
    "countryCode": "IE",
    "claimThisBusiness": true,
    "location": {
      "lat": 53.1948279,
      "lng": -6.1745605
    },
    "totalScore": 4.6,
    "permanentlyClosed": false,
    "temporarilyClosed": false,
    "placeId": "ChIJ94xnp6mnZ0gRckMyzRpy-k8",
    "categories": [
      "Bridge"
    ],
    "fid": "0x4867a7a9a7678cf7:0x4ffa721acd324372",
    "cid": "5763044132611310450",
    "reviewsCount": 9,
    "imageCategories": [],
    "scrapedAt": "2025-11-22T11:06:49.557Z",
    "googleFoodUrl": null,
    "hotelAds": [],
    "openingHours": [],
    "peopleAlsoSearch": [],
    "placesTags": [],
    "reviewsTags": [],
    "gasPrices": [],
    "url": "https://www.google.com/maps/search/?api=1&query=Knocksink%20Bridge&query_place_id=ChIJ94xnp6mnZ0gRckMyzRpy-k8",
    "searchPageUrl": "https://www.google.com/maps/search/ALL_PLACES_NO_SEARCH/@53.20419531096836,-6.178472900000001,17z",
    "searchString": "ALL_PLACES_NO_SEARCH",
    "language": "en",
    "rank": 13,
    "isAdvertisement": false,
    "kgmid": "/g/11f1232zxh"
  },
  {
    "title": "Lowerys Bridge",
    "price": null,
    "categoryName": "Bridge",
    "address": "Whitestown East, Waterford, Ireland",
    "neighborhood": "Whitestown East",
    "street": null,
    "city": "Waterford",
    "postalCode": null,
    "state": null,
    "countryCode": "IE",
    "claimThisBusiness": true,
    "location": {
      "lat": 52.2842361,
      "lng": -7.3834619
    },
    "totalScore": 5,
    "permanentlyClosed": false,
    "temporarilyClosed": false,
    "placeId": "ChIJ19HefxjZQkgRHg2mWNU47rU",
    "categories": [
      "Bridge"
    ],
    "fid": "0x4842d9187fded1d7:0xb5ee38d558a60d1e",
    "cid": "13109478054288559390",
    "reviewsCount": 1,
    "imageCategories": [],
    "scrapedAt": "2025-11-22T11:07:16.154Z",
    "googleFoodUrl": null,
    "hotelAds": [],
    "openingHours": [],
    "peopleAlsoSearch": [],
    "placesTags": [],
    "reviewsTags": [],
    "gasPrices": [],
    "url": "https://www.google.com/maps/search/?api=1&query=Lowerys%20Bridge&query_place_id=ChIJ19HefxjZQkgRHg2mWNU47rU",
    "searchPageUrl": "https://www.google.com/maps/search/ALL_PLACES_NO_SEARCH/@52.29317132831545,-7.387071338677338,17z",
    "searchString": "ALL_PLACES_NO_SEARCH",
    "language": "en",
    "rank": 2,
    "isAdvertisement": false,
    "kgmid": "/g/11h7ms17z6"
  },
  {
    "title": "Clydagh Bridge",
    "price": null,
    "categoryName": "Bridge",
    "address": "Clydagh Bridge, Uggool, Co. Galway, Ireland",
    "neighborhood": "Uggool",
    "street": "Clydagh Bridge",
    "city": null,
    "postalCode": null,
    "state": "Co. Galway",
    "countryCode": "IE",
    "claimThisBusiness": true,
    "location": {
      "lat": 53.326421,
      "lng": -9.1675688
    },
    "totalScore": 4,
    "permanentlyClosed": false,
    "temporarilyClosed": false,
    "placeId": "ChIJORg6Rmu_W0gRWQde4IXyV4k",
    "categories": [
      "Bridge"
    ],
    "fid": "0x485bbf6b463a1839:0x8957f285e05e0759",
    "cid": "9896645362978785113",
    "reviewsCount": 1,
    "imageCategories": [],
    "scrapedAt": "2025-11-22T11:07:16.547Z",
    "googleFoodUrl": null,
    "hotelAds": [],
    "openingHours": [],
    "peopleAlsoSearch": [],
    "placesTags": [],
    "reviewsTags": [],
    "gasPrices": [],
    "url": "https://www.google.com/maps/search/?api=1&query=Clydagh%20Bridge&query_place_id=ChIJORg6Rmu_W0gRWQde4IXyV4k",
    "searchPageUrl": "https://www.google.com/maps/search/ALL_PLACES_NO_SEARCH/@53.32782240778411,-9.1684970498599,17z",
    "searchString": "ALL_PLACES_NO_SEARCH",
    "language": "en",
    "rank": 2,
    "isAdvertisement": false,
    "kgmid": "/g/11s56_5v27"
  },
  {
    "title": "Little Baladine Bridge",
    "price": null,
    "categoryName": "Bridge",
    "address": "Unnamed Road, Knocknamoe, Co. Laois, Ireland",
    "neighborhood": "Knocknamoe",
    "street": "Unnamed Road",
    "city": null,
    "postalCode": null,
    "state": "Co. Laois",
    "countryCode": "IE",
    "claimThisBusiness": true,
    "location": {
      "lat": 52.9182386,
      "lng": -7.3548498
    },
    "totalScore": 4,
    "permanentlyClosed": false,
    "temporarilyClosed": false,
    "placeId": "ChIJsUNXFMIRXUgRuy1iv0ksms8",
    "categories": [
      "Bridge"
    ],
    "fid": "0x485d11c2145743b1:0xcf9a2c49bf622dbb",
    "cid": "14959317807519641019",
    "reviewsCount": 2,
    "imageCategories": [],
    "scrapedAt": "2025-11-22T11:07:24.663Z",
    "googleFoodUrl": null,
    "hotelAds": [],
    "openingHours": [],
    "peopleAlsoSearch": [],
    "placesTags": [],
    "reviewsTags": [],
    "gasPrices": [],
    "url": "https://www.google.com/maps/search/?api=1&query=Little%20Baladine%20Bridge&query_place_id=ChIJsUNXFMIRXUgRuy1iv0ksms8",
    "searchPageUrl": "https://www.google.com/maps/search/ALL_PLACES_NO_SEARCH/@52.92160750258919,-7.360820331904756,17z",
    "searchString": "ALL_PLACES_NO_SEARCH",
    "language": "en",
    "rank": 7,
    "isAdvertisement": false,
    "kgmid": "/g/11gjhp3kbj"
  },
  {
    "title": "The Brian Boru Bridge",
    "price": null,
    "categoryName": "Bridge",
    "address": "Ballina, Co. Tipperary, Ireland",
    "neighborhood": null,
    "street": null,
    "city": "Ballina",
    "postalCode": null,
    "state": "Co. Tipperary",
    "countryCode": "IE",
    "website": "https://www.brianborubridge.ie/",
    "claimThisBusiness": true,
    "location": {
      "lat": 52.799771,
      "lng": -8.4361904
    },
    "totalScore": 5,
    "permanentlyClosed": false,
    "temporarilyClosed": false,
    "placeId": "ChIJnyz9PgCfXEgRBCcMobcMLko",
    "categories": [
      "Bridge"
    ],
    "fid": "0x485c9f003efd2c9f:0x4a2e0cb7a10c2704",
    "cid": "5345223790555834116",
    "reviewsCount": 6,
    "imageCategories": [],
    "scrapedAt": "2025-11-22T11:07:39.348Z",
    "googleFoodUrl": null,
    "hotelAds": [],
    "openingHours": [],
    "peopleAlsoSearch": [],
    "placesTags": [],
    "reviewsTags": [],
    "additionalInfo": {
      "Amenities": [
        {
          "Restroom": false
        }
      ]
    },
    "gasPrices": [],
    "url": "https://www.google.com/maps/search/?api=1&query=The%20Brian%20Boru%20Bridge&query_place_id=ChIJnyz9PgCfXEgRBCcMobcMLko",
    "searchPageUrl": "https://www.google.com/maps/search/ALL_PLACES_NO_SEARCH/@52.8043871437695,-8.438470681560448,17z",
    "searchString": "ALL_PLACES_NO_SEARCH",
    "language": "en",
    "rank": 6,
    "isAdvertisement": false,
    "kgmid": "/g/11yc31mbc5"
  },
  {
    "title": "Killaloe Pike Fishing",
    "price": null,
    "categoryName": "Fishing charter",
    "address": "Ballina, Killaloe, Co. Tipperary, Ireland",
    "neighborhood": "Ballina",
    "street": null,
    "city": "Killaloe",
    "postalCode": null,
    "state": "Co. Tipperary",
    "countryCode": "IE",
    "website": "http://www.pike-ireland.eu/",
    "claimThisBusiness": false,
    "location": {
      "lat": 52.80796,
      "lng": -8.43937
    },
    "totalScore": 4.6,
    "permanentlyClosed": false,
    "temporarilyClosed": false,
    "placeId": "ChIJ0-6rgfKeXEgRtwk4bdSxRjA",
    "categories": [
      "Fishing charter",
      "Bridge"
    ],
    "fid": "0x485c9ef281abeed3:0x3046b1d46d3809b7",
    "cid": "3478663288113858999",
    "reviewsCount": 162,
    "imageCategories": [],
    "scrapedAt": "2025-11-22T11:07:41.454Z",
    "googleFoodUrl": null,
    "hotelAds": [],
    "openingHours": [
      {
        "day": "Monday",
        "hours": "Open 24 hours"
      },
      {
        "day": "Tuesday",
        "hours": "Open 24 hours"
      },
      {
        "day": "Wednesday",
        "hours": "Open 24 hours"
      },
      {
        "day": "Thursday",
        "hours": "Open 24 hours"
      },
      {
        "day": "Friday",
        "hours": "Open 24 hours"
      },
      {
        "day": "Saturday",
        "hours": "Open 24 hours"
      },
      {
        "day": "Sunday",
        "hours": "Open 24 hours"
      }
    ],
    "peopleAlsoSearch": [],
    "placesTags": [],
    "reviewsTags": [],
    "additionalInfo": {
      "Accessibility": [
        {
          "Wheelchair accessible entrance": true
        },
        {
          "Wheelchair accessible parking lot": true
        }
      ]
    },
    "gasPrices": [],
    "url": "https://www.google.com/maps/search/?api=1&query=Killaloe%20Pike%20Fishing&query_place_id=ChIJ0-6rgfKeXEgRtwk4bdSxRjA",
    "searchPageUrl": "https://www.google.com/maps/search/ALL_PLACES_NO_SEARCH/@52.80957535623044,-8.44704328419467,17z",
    "searchString": "ALL_PLACES_NO_SEARCH",
    "language": "en",
    "rank": 16,
    "isAdvertisement": false,
    "kgmid": "/m/0zdlgks"
  },
  {
    "title": "Obelisk Bridge",
    "price": null,
    "categoryName": "Bridge",
    "address": "Battle of the Boyne Visitor Centre, Drogheda, Co. Louth, Ireland",
    "neighborhood": "Battle of the Boyne Visitor Centre",
    "street": null,
    "city": "Drogheda",
    "postalCode": null,
    "state": "Co. Louth",
    "countryCode": "IE",
    "claimThisBusiness": true,
    "location": {
      "lat": 53.7250851,
      "lng": -6.4170302
    },
    "totalScore": 4.5,
    "permanentlyClosed": false,
    "temporarilyClosed": false,
    "placeId": "ChIJny-dqTM4Z0gR_-jlc6v1Ub8",
    "categories": [
      "Bridge"
    ],
    "fid": "0x48673833a99d2f9f:0xbf51f5ab73e5e8ff",
    "cid": "13786070051090458879",
    "reviewsCount": 63,
    "imageCategories": [],
    "scrapedAt": "2025-11-22T11:07:46.797Z",
    "googleFoodUrl": null,
    "hotelAds": [],
    "openingHours": [
      {
        "day": "Monday",
        "hours": "Open 24 hours"
      },
      {
        "day": "Tuesday",
        "hours": "Open 24 hours"
      },
      {
        "day": "Wednesday",
        "hours": "Open 24 hours"
      },
      {
        "day": "Thursday",
        "hours": "Open 24 hours"
      },
      {
        "day": "Friday",
        "hours": "Open 24 hours"
      },
      {
        "day": "Saturday",
        "hours": "Open 24 hours"
      },
      {
        "day": "Sunday",
        "hours": "Open 24 hours"
      }
    ],
    "peopleAlsoSearch": [],
    "placesTags": [],
    "reviewsTags": [],
    "additionalInfo": {
      "Accessibility": [
        {
          "Wheelchair accessible entrance": true
        }
      ]
    },
    "gasPrices": [],
    "url": "https://www.google.com/maps/search/?api=1&query=Obelisk%20Bridge&query_place_id=ChIJny-dqTM4Z0gR_-jlc6v1Ub8",
    "searchPageUrl": "https://www.google.com/maps/search/ALL_PLACES_NO_SEARCH/@53.729152137388986,-6.431760193719229,17z",
    "searchString": "ALL_PLACES_NO_SEARCH",
    "language": "en",
    "rank": 4,
    "isAdvertisement": false,
    "kgmid": "/g/11fd6dcy94"
  },
  {
    "title": "Portumna Swing Bridge",
    "price": null,
    "categoryName": "Bridge",
    "address": "N65, Portumna, Co. Galway, Ireland",
    "neighborhood": null,
    "street": "N65",
    "city": "Portumna",
    "postalCode": null,
    "state": "Co. Galway",
    "countryCode": "IE",
    "claimThisBusiness": true,
    "location": {
      "lat": 53.0914705,
      "lng": -8.1949757
    },
    "totalScore": 4.4,
    "permanentlyClosed": false,
    "temporarilyClosed": false,
    "placeId": "ChIJdXMnChCLXEgRCqebLPuzz40",
    "categories": [
      "Bridge"
    ],
    "fid": "0x485c8b100a277375:0x8dcfb3fb2c9ba70a",
    "cid": "10218583970893506314",
    "reviewsCount": 10,
    "imageCategories": [],
    "scrapedAt": "2025-11-22T11:07:53.843Z",
    "googleFoodUrl": null,
    "hotelAds": [],
    "openingHours": [],
    "peopleAlsoSearch": [],
    "placesTags": [],
    "reviewsTags": [],
    "additionalInfo": {
      "Accessibility": [
        {
          "Wheelchair accessible parking lot": false
        }
      ],
      "Amenities": [
        {
          "Restroom": false
        }
      ]
    },
    "gasPrices": [],
    "url": "https://www.google.com/maps/search/?api=1&query=Portumna%20Swing%20Bridge&query_place_id=ChIJdXMnChCLXEgRCqebLPuzz40",
    "searchPageUrl": "https://www.google.com/maps/search/ALL_PLACES_NO_SEARCH/@53.0938716,-8.20856703120131,17z",
    "searchString": "ALL_PLACES_NO_SEARCH",
    "language": "en",
    "rank": 3,
    "isAdvertisement": false,
    "kgmid": "/g/11kp_15q2d"
  },
  {
    "title": "Lanesborough Bridge",
    "price": null,
    "categoryName": "Bridge",
    "address": "N63, Lanesborough, Co. Longford, Ireland",
    "neighborhood": "Lanesborough",
    "street": "N63",
    "city": null,
    "postalCode": null,
    "state": "Co. Longford",
    "countryCode": "IE",
    "claimThisBusiness": true,
    "location": {
      "lat": 53.674159,
      "lng": -7.9923945
    },
    "totalScore": 4.7,
    "permanentlyClosed": false,
    "temporarilyClosed": false,
    "placeId": "ChIJhzWOThovXEgRMvyBLvFQGI4",
    "categories": [
      "Bridge"
    ],
    "fid": "0x485c2f1a4e8e3587:0x8e1850f12e81fc32",
    "cid": "10239022749624433714",
    "reviewsCount": 7,
    "imageCategories": [],
    "scrapedAt": "2025-11-22T11:07:55.348Z",
    "googleFoodUrl": null,
    "hotelAds": [],
    "openingHours": [
      {
        "day": "Monday",
        "hours": "Open 24 hours"
      },
      {
        "day": "Tuesday",
        "hours": "Open 24 hours"
      },
      {
        "day": "Wednesday",
        "hours": "Open 24 hours"
      },
      {
        "day": "Thursday",
        "hours": "Open 24 hours"
      },
      {
        "day": "Friday",
        "hours": "Open 24 hours"
      },
      {
        "day": "Saturday",
        "hours": "Open 24 hours"
      },
      {
        "day": "Sunday",
        "hours": "Open 24 hours"
      }
    ],
    "peopleAlsoSearch": [],
    "placesTags": [],
    "reviewsTags": [],
    "additionalInfo": {
      "Accessibility": [
        {
          "Wheelchair accessible entrance": true
        }
      ]
    },
    "gasPrices": [],
    "url": "https://www.google.com/maps/search/?api=1&query=Lanesborough%20Bridge&query_place_id=ChIJhzWOThovXEgRMvyBLvFQGI4",
    "searchPageUrl": "https://www.google.com/maps/search/ALL_PLACES_NO_SEARCH/@53.67539788447249,-8.002459706595735,17z",
    "searchString": "ALL_PLACES_NO_SEARCH",
    "language": "en",
    "rank": 6,
    "isAdvertisement": false,
    "kgmid": "/g/11gnrwb44q"
  },
  {
    "title": "Slane Bridge",
    "price": null,
    "categoryName": "Bridge",
    "address": "Fennor, Co. Meath, Ireland",
    "neighborhood": "Fennor",
    "street": null,
    "city": null,
    "postalCode": null,
    "state": "Co. Meath",
    "countryCode": "IE",
    "claimThisBusiness": true,
    "location": {
      "lat": 53.703623,
      "lng": -6.5411296
    },
    "totalScore": 4.7,
    "permanentlyClosed": false,
    "temporarilyClosed": false,
    "placeId": "ChIJNe8ySERGZ0gRMkiIZN4tdJI",
    "categories": [
      "Bridge"
    ],
    "fid": "0x486746444832ef35:0x92742dde64884832",
    "cid": "10553110260028557362",
    "reviewsCount": 87,
    "imageCategories": [],
    "scrapedAt": "2025-11-22T11:08:09.376Z",
    "googleFoodUrl": null,
    "hotelAds": [],
    "openingHours": [],
    "peopleAlsoSearch": [],
    "placesTags": [],
    "reviewsTags": [],
    "gasPrices": [],
    "url": "https://www.google.com/maps/search/?api=1&query=Slane%20Bridge&query_place_id=ChIJNe8ySERGZ0gRMkiIZN4tdJI",
    "searchPageUrl": "https://www.google.com/maps/search/ALL_PLACES_NO_SEARCH/@53.7082842,-6.5461685677617085,17z",
    "searchString": "ALL_PLACES_NO_SEARCH",
    "language": "en",
    "rank": 17,
    "isAdvertisement": false,
    "kgmid": "/g/11gc11pqrx"
  },
  {
    "title": "Thomastown Bridge and 18th Lock",
    "price": null,
    "categoryName": "Bridge",
    "address": "Killucan, Thomastown, Co. Westmeath, Ireland",
    "neighborhood": "Thomastown",
    "street": "Killucan",
    "city": null,
    "postalCode": null,
    "state": "Co. Westmeath",
    "countryCode": "IE",
    "claimThisBusiness": true,
    "location": {
      "lat": 53.4959935,
      "lng": -7.1276146
    },
    "totalScore": 4.4,
    "permanentlyClosed": false,
    "temporarilyClosed": false,
    "placeId": "ChIJ17vZOJOSXUgR5Rq-WYSvWd0",
    "categories": [
      "Bridge"
    ],
    "fid": "0x485d929338d9bbd7:0xdd59af8459be1ae5",
    "cid": "15949972538285497061",
    "reviewsCount": 9,
    "imageCategories": [],
    "scrapedAt": "2025-11-22T11:08:44.687Z",
    "googleFoodUrl": null,
    "hotelAds": [],
    "openingHours": [],
    "peopleAlsoSearch": [],
    "placesTags": [],
    "reviewsTags": [],
    "gasPrices": [],
    "url": "https://www.google.com/maps/search/?api=1&query=Thomastown%20Bridge%20and%2018th%20Lock&query_place_id=ChIJ17vZOJOSXUgR5Rq-WYSvWd0",
    "searchPageUrl": "https://www.google.com/maps/search/ALL_PLACES_NO_SEARCH/@53.5005566374168,-7.136905486806327,17z",
    "searchString": "ALL_PLACES_NO_SEARCH",
    "language": "en",
    "rank": 1,
    "isAdvertisement": false,
    "kgmid": "/g/11f1wr5zq4"
  },
  {
    "title": "Cherrygrove Bridge",
    "price": null,
    "categoryName": "Bridge",
    "address": "Tullovin, Limerick, Ireland",
    "neighborhood": "Tullovin",
    "street": null,
    "city": "Limerick",
    "postalCode": null,
    "state": null,
    "countryCode": "IE",
    "claimThisBusiness": true,
    "location": {
      "lat": 52.4965782,
      "lng": -8.6959315
    },
    "totalScore": 5,
    "permanentlyClosed": false,
    "temporarilyClosed": false,
    "placeId": "ChIJBfAhdbtPW0gRUM2COmjUK-o",
    "categories": [
      "Bridge"
    ],
    "fid": "0x485b4fbb7521f005:0xea2bd4683a82cd50",
    "cid": "16873813972997033296",
    "reviewsCount": 1,
    "imageCategories": [],
    "scrapedAt": "2025-11-22T11:08:49.624Z",
    "googleFoodUrl": null,
    "hotelAds": [],
    "openingHours": [],
    "peopleAlsoSearch": [],
    "placesTags": [],
    "reviewsTags": [],
    "gasPrices": [],
    "url": "https://www.google.com/maps/search/?api=1&query=Cherrygrove%20Bridge&query_place_id=ChIJBfAhdbtPW0gRUM2COmjUK-o",
    "searchPageUrl": "https://www.google.com/maps/search/ALL_PLACES_NO_SEARCH/@52.49720573210361,-8.702775980207711,17z",
    "searchString": "ALL_PLACES_NO_SEARCH",
    "language": "en",
    "rank": 1,
    "isAdvertisement": false,
    "kgmid": "/g/11h1k23_tq"
  },
  {
    "title": "Crooked Bridge",
    "price": null,
    "categoryName": "Bridge",
    "address": "Waterford Greenway, Garrynageragh East, Co. Waterford, Ireland",
    "neighborhood": "Garrynageragh East",
    "street": "Waterford Greenway",
    "city": null,
    "postalCode": null,
    "state": "Co. Waterford",
    "countryCode": "IE",
    "claimThisBusiness": true,
    "location": {
      "lat": 52.10151,
      "lng": -7.5549791
    },
    "totalScore": 4.6,
    "permanentlyClosed": false,
    "temporarilyClosed": false,
    "placeId": "ChIJAVceTpIYQ0gRreq5sm8C-NU",
    "categories": [
      "Bridge"
    ],
    "fid": "0x484318924e1e5701:0xd5f8026fb2b9eaad",
    "cid": "15418076003066047149",
    "reviewsCount": 22,
    "imageCategories": [],
    "scrapedAt": "2025-11-22T11:08:56.664Z",
    "googleFoodUrl": null,
    "hotelAds": [],
    "openingHours": [],
    "peopleAlsoSearch": [],
    "placesTags": [],
    "reviewsTags": [],
    "gasPrices": [],
    "url": "https://www.google.com/maps/search/?api=1&query=Crooked%20Bridge&query_place_id=ChIJAVceTpIYQ0gRreq5sm8C-NU",
    "searchPageUrl": "https://www.google.com/maps/search/ALL_PLACES_NO_SEARCH/@52.1062511782592,-7.562866049089568,17z",
    "searchString": "ALL_PLACES_NO_SEARCH",
    "language": "en",
    "rank": 1,
    "isAdvertisement": false,
    "kgmid": "/g/11f0wmjqp3"
  },
  {
    "title": "Coolalisheen Bridge",
    "price": null,
    "categoryName": "Bridge",
    "address": "Coolalisheen, Cork, Ireland",
    "neighborhood": "Coolalisheen",
    "street": null,
    "city": "Cork",
    "postalCode": null,
    "state": null,
    "countryCode": "IE",
    "claimThisBusiness": true,
    "location": {
      "lat": 52.1669117,
      "lng": -8.2203534
    },
    "totalScore": 4,
    "permanentlyClosed": false,
    "temporarilyClosed": false,
    "placeId": "ChIJiwgyH8dZQ0gRxY8Dgxbi5e4",
    "categories": [
      "Bridge"
    ],
    "fid": "0x484359c71f32088b:0xeee5e21683038fc5",
    "cid": "17214413737008795589",
    "reviewsCount": 2,
    "imageCategories": [],
    "scrapedAt": "2025-11-22T11:09:19.563Z",
    "googleFoodUrl": null,
    "hotelAds": [],
    "openingHours": [
      {
        "day": "Monday",
        "hours": "Open 24 hours"
      },
      {
        "day": "Tuesday",
        "hours": "Open 24 hours"
      },
      {
        "day": "Wednesday",
        "hours": "Open 24 hours"
      },
      {
        "day": "Thursday",
        "hours": "Open 24 hours"
      },
      {
        "day": "Friday",
        "hours": "Open 24 hours"
      },
      {
        "day": "Saturday",
        "hours": "Open 24 hours"
      },
      {
        "day": "Sunday",
        "hours": "Open 24 hours"
      }
    ],
    "peopleAlsoSearch": [],
    "placesTags": [],
    "reviewsTags": [],
    "gasPrices": [],
    "url": "https://www.google.com/maps/search/?api=1&query=Coolalisheen%20Bridge&query_place_id=ChIJiwgyH8dZQ0gRxY8Dgxbi5e4",
    "searchPageUrl": "https://www.google.com/maps/search/ALL_PLACES_NO_SEARCH/@52.1675630737432,-8.227343409395774,17z",
    "searchString": "ALL_PLACES_NO_SEARCH",
    "language": "en",
    "rank": 2,
    "isAdvertisement": false,
    "kgmid": "/g/11jwxlql76"
  }
]