[
  {
    "title": "Merlin Castle",
    "subTitle": "Caisleán Mhuirlinne",
    "price": null,
    "categoryName": "Historical landmark",
    "address": "Merlin Woods, Merlin Park,, Galway, Ireland",
    "neighborhood": null,
    "street": "Merlin Woods, Merlin Park,",
    "city": "Galway",
    "postalCode": null,
    "state": null,
    "countryCode": "IE",
    "website": "https://www.facebook.com/groups/FriendsofMerlinWoods/",
    "claimThisBusiness": true,
    "location": {
      "lat": 53.2798323,
      "lng": -8.9980586
    },
    "totalScore": 4.2,
    "permanentlyClosed": false,
    "temporarilyClosed": false,
    "placeId": "ChIJaQKlazCRW0gRZbtfLlyuNBg",
    "categories": [
      "Historical landmark",
      "Tourist attraction"
    ],
    "fid": "0x485b91306ba50269:0x1834ae5c2e5fbb65",
    "cid": "1744210666637474661",
    "reviewsCount": 293,
    "imageCategories": [],
    "scrapedAt": "2025-11-22T11:42:20.413Z",
    "googleFoodUrl": null,
    "hotelAds": [],
    "openingHours": [
      {
        "day": "Monday",
        "hours": "Open 24 hours"
      },
      {
        "day": "Tuesday",
        "hours": "Open 24 hours"
      },
      {
        "day": "Wednesday",
        "hours": "Open 24 hours"
      },
      {
        "day": "Thursday",
        "hours": "Open 24 hours"
      },
      {
        "day": "Friday",
        "hours": "Open 24 hours"
      },
      {
        "day": "Saturday",
        "hours": "Open 24 hours"
      },
      {
        "day": "Sunday",
        "hours": "Open 24 hours"
      }
    ],
    "peopleAlsoSearch": [],
    "placesTags": [],
    "reviewsTags": [],
    "additionalInfo": {
      "Accessibility": [
        {
          "Wheelchair accessible entrance": false
        },
        {
          "Wheelchair accessible parking lot": false
        }
      ]
    },
    "gasPrices": [],
    "url": "https://www.google.com/maps/search/?api=1&query=Merlin%20Castle&query_place_id=ChIJaQKlazCRW0gRZbtfLlyuNBg",
    "searchPageUrl": "https://www.google.com/maps/search/ALL_PLACES_NO_SEARCH/@53.2841306,-9.01445064208535,16z",
    "searchString": "ALL_PLACES_NO_SEARCH",
    "language": "en",
    "rank": 34,
    "isAdvertisement": false,
    "kgmid": "/g/11c5s7m5kq"
  },
  {
    "title": "playground",
    "price": null,
    "categoryName": "Playground",
    "address": "Merlin Park Ln, Galway, Ireland",
    "neighborhood": null,
    "street": "Merlin Park Ln",
    "city": "Galway",
    "postalCode": null,
    "state": null,
    "countryCode": "IE",
    "claimThisBusiness": true,
    "location": {
      "lat": 53.2806545,
      "lng": -8.9985928
    },
    "totalScore": 4.8,
    "permanentlyClosed": false,
    "temporarilyClosed": false,
    "placeId": "ChIJ30bMXTCRW0gRrEvComCMNUQ",
    "categories": [
      "Playground"
    ],
    "fid": "0x485b91305dcc46df:0x44358c60a2c24bac",
    "cid": "4914988915020155820",
    "reviewsCount": 6,
    "imageCategories": [],
    "scrapedAt": "2025-11-22T11:42:20.413Z",
    "googleFoodUrl": null,
    "hotelAds": [],
    "openingHours": [
      {
        "day": "Monday",
        "hours": "Open 24 hours"
      },
      {
        "day": "Tuesday",
        "hours": "Open 24 hours"
      },
      {
        "day": "Wednesday",
        "hours": "Open 24 hours"
      },
      {
        "day": "Thursday",
        "hours": "Open 24 hours"
      },
      {
        "day": "Friday",
        "hours": "Open 24 hours"
      },
      {
        "day": "Saturday",
        "hours": "Open 24 hours"
      },
      {
        "day": "Sunday",
        "hours": "Open 24 hours"
      }
    ],
    "peopleAlsoSearch": [],
    "placesTags": [],
    "reviewsTags": [],
    "additionalInfo": {
      "Accessibility": [
        {
          "Wheelchair accessible entrance": true
        }
      ],
      "Amenities": [
        {
          "Slides": true
        },
        {
          "Swings": true
        }
      ]
    },
    "gasPrices": [],
    "url": "https://www.google.com/maps/search/?api=1&query=playground&query_place_id=ChIJ30bMXTCRW0gRrEvComCMNUQ",
    "searchPageUrl": "https://www.google.com/maps/search/ALL_PLACES_NO_SEARCH/@53.2841306,-9.01445064208535,16z",
    "searchString": "ALL_PLACES_NO_SEARCH",
    "language": "en",
    "rank": 35,
    "isAdvertisement": false,
    "kgmid": "/g/11ggph49vk"
  },
  {
    "title": "Merlin Park Woods",
    "price": null,
    "categoryName": "Wildlife park",
    "address": "City Park, Merlin Woods, Doughiska Rd, Galway, Ireland",
    "neighborhood": null,
    "street": "City Park, Merlin Woods, Doughiska Rd",
    "city": "Galway",
    "postalCode": null,
    "state": null,
    "countryCode": "IE",
    "website": "https://www.visitgalway.ie/explore/outdoors-and-recreation/parks-gardens-woodlands/merlin-park-woodland/",
    "phone": "+353 91 536 565",
    "phoneUnformatted": "+35391536565",
    "claimThisBusiness": true,
    "location": {
      "lat": 53.2801813,
      "lng": -8.9917731
    },
    "totalScore": 4.4,
    "permanentlyClosed": false,
    "temporarilyClosed": false,
    "placeId": "ChIJbeI2FjuRW0gRsmlukgmwKB0",
    "categories": [
      "Wildlife park",
      "Tourist attraction"
    ],
    "fid": "0x485b913b1636e26d:0x1d28b009926e69b2",
    "cid": "2101122781326240178",
    "reviewsCount": 214,
    "imageCategories": [],
    "scrapedAt": "2025-11-22T11:42:20.413Z",
    "googleFoodUrl": null,
    "hotelAds": [],
    "openingHours": [
      {
        "day": "Monday",
        "hours": "Open 24 hours"
      },
      {
        "day": "Tuesday",
        "hours": "Open 24 hours"
      },
      {
        "day": "Wednesday",
        "hours": "Open 24 hours"
      },
      {
        "day": "Thursday",
        "hours": "Open 24 hours"
      },
      {
        "day": "Friday",
        "hours": "Open 24 hours"
      },
      {
        "day": "Saturday",
        "hours": "Open 24 hours"
      },
      {
        "day": "Sunday",
        "hours": "Open 24 hours"
      }
    ],
    "peopleAlsoSearch": [],
    "placesTags": [],
    "reviewsTags": [],
    "additionalInfo": {
      "Highlights": [
        {
          "Picnics": true
        }
      ],
      "Activities": [
        {
          "Hiking": true
        }
      ],
      "Amenities": [
        {
          "Cycling lanes": true
        }
      ],
      "Children": [
        {
          "Good for kids": true
        },
        {
          "Kid-friendly hikes": true
        }
      ],
      "Pets": [
        {
          "Dogs allowed": true
        }
      ]
    },
    "gasPrices": [],
    "url": "https://www.google.com/maps/search/?api=1&query=Merlin%20Park%20Woods&query_place_id=ChIJbeI2FjuRW0gRsmlukgmwKB0",
    "searchPageUrl": "https://www.google.com/maps/search/ALL_PLACES_NO_SEARCH/@53.2841306,-9.01445064208535,16z",
    "searchString": "ALL_PLACES_NO_SEARCH",
    "language": "en",
    "rank": 37,
    "isAdvertisement": false,
    "kgmid": "/g/11btwvff11"
  },
  {
    "title": "Flannery's Hotel Galway",
    "description": "Casual hotel with simple rooms, classic dining, and a relaxed bistro with a lunchtime carvery.",
    "price": null,
    "categoryName": "Hotel",
    "address": "Old Dublin Rd, City East, Galway, H91 KH64, Ireland",
    "neighborhood": "City East",
    "street": "Old Dublin Rd",
    "city": "Galway",
    "postalCode": "H91 KH64",
    "state": null,
    "countryCode": "IE",
    "website": "https://www.flanneryshotelgalway.com/?utm_source=mybusiness&utm_medium=organic",
    "phone": "+353 91 755 111",
    "phoneUnformatted": "+35391755111",
    "claimThisBusiness": false,
    "location": {
      "lat": 53.2782181,
      "lng": -9.014905
    },
    "totalScore": 4.2,
    "permanentlyClosed": false,
    "temporarilyClosed": false,
    "placeId": "ChIJww16bc-WW0gRXAP1Ap7u3x0",
    "categories": [
      "Hotel",
      "Bar",
      "Bistro",
      "Event venue",
      "Restaurant"
    ],
    "fid": "0x485b96cf6d7a0dc3:0x1ddfee9e02f5035c",
    "cid": "2152701509328241500",
    "reviewsCount": 2321,
    "imageCategories": [],
    "scrapedAt": "2025-11-22T11:42:20.413Z",
    "googleFoodUrl": null,
    "hotelStars": "3-star hotel",
    "hotelAds": [],
    "openingHours": [],
    "peopleAlsoSearch": [],
    "placesTags": [],
    "reviewsTags": [],
    "additionalInfo": {
      "Crowd": [
        {
          "LGBTQ+ friendly": true
        }
      ]
    },
    "gasPrices": [],
    "url": "https://www.google.com/maps/search/?api=1&query=Flannery's%20Hotel%20Galway&query_place_id=ChIJww16bc-WW0gRXAP1Ap7u3x0",
    "searchPageUrl": "https://www.google.com/maps/search/ALL_PLACES_NO_SEARCH/@53.2841306,-9.01445064208535,16z",
    "searchString": "ALL_PLACES_NO_SEARCH",
    "language": "en",
    "rank": 39,
    "isAdvertisement": false,
    "kgmid": "/g/1hc4d3cvl"
  },
  {
    "title": "Kingfisher Club",
    "price": null,
    "categoryName": "Gym",
    "address": "Renmore Ave, Galway, Ireland",
    "neighborhood": null,
    "street": "Renmore Ave",
    "city": "Galway",
    "postalCode": null,
    "state": null,
    "countryCode": "IE",
    "website": "https://kingfisherclub.com/gym-renmore-galway/",
    "phone": "+353 91 773 344",
    "phoneUnformatted": "+35391773344",
    "claimThisBusiness": false,
    "location": {
      "lat": 53.2754444,
      "lng": -9.0156138
    },
    "totalScore": 4.4,
    "permanentlyClosed": false,
    "temporarilyClosed": false,
    "placeId": "ChIJoTJvPdKWW0gRgZHFHx2ek9k",
    "categories": [
      "Gym",
      "Physical fitness program",
      "Public swimming pool",
      "Yoga studio"
    ],
    "fid": "0x485b96d23d6f32a1:0xd9939e1d1fc59181",
    "cid": "15678048575731110273",
    "reviewsCount": 136,
    "imageCategories": [],
    "scrapedAt": "2025-11-22T11:42:20.413Z",
    "googleFoodUrl": null,
    "hotelAds": [],
    "openingHours": [
      {
        "day": "Monday",
        "hours": "7 AM to 9 PM"
      },
      {
        "day": "Tuesday",
        "hours": "7 AM to 9 PM"
      },
      {
        "day": "Wednesday",
        "hours": "7 AM to 9 PM"
      },
      {
        "day": "Thursday",
        "hours": "7 AM to 9 PM"
      },
      {
        "day": "Friday",
        "hours": "7 AM to 9 PM"
      },
      {
        "day": "Saturday",
        "hours": "9 AM to 5:30 PM"
      },
      {
        "day": "Sunday",
        "hours": "9 AM to 5:30 PM"
      }
    ],
    "peopleAlsoSearch": [],
    "placesTags": [],
    "reviewsTags": [],
    "additionalInfo": {
      "Service options": [
        {
          "Online classes": true
        }
      ],
      "Accessibility": [
        {
          "Wheelchair accessible entrance": true
        },
        {
          "Wheelchair accessible parking lot": true
        },
        {
          "Wheelchair accessible restroom": true
        }
      ],
      "Amenities": [
        {
          "Restroom": true
        },
        {
          "Swimming pool": true
        }
      ],
      "Payments": [
        {
          "Credit cards": true
        },
        {
          "Debit cards": true
        },
        {
          "NFC mobile payments": true
        },
        {
          "Credit cards": true
        }
      ]
    },
    "gasPrices": [],
    "url": "https://www.google.com/maps/search/?api=1&query=Kingfisher%20Club&query_place_id=ChIJoTJvPdKWW0gRgZHFHx2ek9k",
    "searchPageUrl": "https://www.google.com/maps/search/ALL_PLACES_NO_SEARCH/@53.2841306,-9.01445064208535,16z",
    "searchString": "ALL_PLACES_NO_SEARCH",
    "language": "en",
    "rank": 40,
    "isAdvertisement": false,
    "kgmid": "/g/11gzqy7gf"
  },
  {
    "title": "Catholic Church Of St Oliver Plunkett",
    "price": null,
    "categoryName": "Catholic church",
    "address": "Renmore Ave, Renmore, Galway, Ireland",
    "neighborhood": "Renmore",
    "street": "Renmore Ave",
    "city": "Galway",
    "postalCode": null,
    "state": null,
    "countryCode": "IE",
    "website": "https://www.facebook.com/renmore.parish/",
    "phone": "+353 91 769 338",
    "phoneUnformatted": "+35391769338",
    "claimThisBusiness": true,
    "location": {
      "lat": 53.2771446,
      "lng": -9.0188054
    },
    "totalScore": 4.7,
    "permanentlyClosed": false,
    "temporarilyClosed": false,
    "placeId": "ChIJccxVg9GWW0gR7JQEAMjmFpQ",
    "categories": [
      "Catholic church"
    ],
    "fid": "0x485b96d18355cc71:0x9416e6c8000494ec",
    "cid": "10670970113769116908",
    "reviewsCount": 78,
    "imageCategories": [],
    "scrapedAt": "2025-11-22T11:42:20.886Z",
    "googleFoodUrl": null,
    "hotelAds": [],
    "openingHours": [
      {
        "day": "Monday",
        "hours": "8 AM to 9 PM"
      },
      {
        "day": "Tuesday",
        "hours": "8 AM to 9 PM"
      },
      {
        "day": "Wednesday",
        "hours": "8 AM to 9 PM"
      },
      {
        "day": "Thursday",
        "hours": "8 AM to 9 PM"
      },
      {
        "day": "Friday",
        "hours": "8 AM to 9 PM"
      },
      {
        "day": "Saturday",
        "hours": "8 AM to 9 PM"
      },
      {
        "day": "Sunday",
        "hours": "8 AM to 9 PM"
      }
    ],
    "peopleAlsoSearch": [],
    "placesTags": [],
    "reviewsTags": [],
    "additionalInfo": {
      "Accessibility": [
        {
          "Wheelchair accessible entrance": true
        },
        {
          "Wheelchair accessible parking lot": true
        },
        {
          "Wheelchair accessible restroom": true
        }
      ],
      "Amenities": [
        {
          "Restroom": true
        }
      ]
    },
    "gasPrices": [],
    "url": "https://www.google.com/maps/search/?api=1&query=Catholic%20Church%20Of%20St%20Oliver%20Plunkett&query_place_id=ChIJccxVg9GWW0gR7JQEAMjmFpQ",
    "searchPageUrl": "https://www.google.com/maps/search/ALL_PLACES_NO_SEARCH/@53.2841306,-9.01445064208535,16z",
    "searchString": "ALL_PLACES_NO_SEARCH",
    "language": "en",
    "rank": 41,
    "isAdvertisement": false,
    "kgmid": "/g/11r8yzs_x"
  },
  {
    "title": "ATU Galway City",
    "subTitle": "Ollscoil Theicneolaíoch an Atlantaigh",
    "price": null,
    "categoryName": "University",
    "address": "Old Dublin Rd, Galway, Ireland",
    "neighborhood": null,
    "street": "Old Dublin Rd",
    "city": "Galway",
    "postalCode": null,
    "state": null,
    "countryCode": "IE",
    "website": "https://www.gmit.ie/",
    "phone": "+353 91 753 161",
    "phoneUnformatted": "+35391753161",
    "claimThisBusiness": false,
    "location": {
      "lat": 53.2775483,
      "lng": -9.0106931
    },
    "totalScore": 4.5,
    "permanentlyClosed": false,
    "temporarilyClosed": false,
    "placeId": "ChIJPxMuyzKRW0gRQyHgIAwmgVo",
    "categories": [
      "University",
      "Institute of technology"
    ],
    "fid": "0x485b9132cb2e133f:0x5a81260c20e02143",
    "cid": "6521535568942211395",
    "reviewsCount": 144,
    "imageCategories": [],
    "scrapedAt": "2025-11-22T11:42:20.886Z",
    "googleFoodUrl": null,
    "hotelAds": [],
    "openingHours": [
      {
        "day": "Monday",
        "hours": "9 AM to 5 PM"
      },
      {
        "day": "Tuesday",
        "hours": "9 AM to 5 PM"
      },
      {
        "day": "Wednesday",
        "hours": "9 AM to 5 PM"
      },
      {
        "day": "Thursday",
        "hours": "9 AM to 5 PM"
      },
      {
        "day": "Friday",
        "hours": "9 AM to 5 PM"
      },
      {
        "day": "Saturday",
        "hours": "Closed"
      },
      {
        "day": "Sunday",
        "hours": "Closed"
      }
    ],
    "peopleAlsoSearch": [],
    "placesTags": [],
    "reviewsTags": [],
    "additionalInfo": {
      "Accessibility": [
        {
          "Wheelchair accessible entrance": true
        },
        {
          "Wheelchair accessible parking lot": true
        }
      ]
    },
    "gasPrices": [],
    "url": "https://www.google.com/maps/search/?api=1&query=ATU%20Galway%20City&query_place_id=ChIJPxMuyzKRW0gRQyHgIAwmgVo",
    "searchPageUrl": "https://www.google.com/maps/search/ALL_PLACES_NO_SEARCH/@53.2841306,-9.01445064208535,16z",
    "searchString": "ALL_PLACES_NO_SEARCH",
    "language": "en",
    "rank": 43,
    "isAdvertisement": false,
    "kgmid": "/m/02xdqx"
  },
  {
    "title": "GMIT",
    "price": null,
    "categoryName": "Bus stop",
    "address": "Galway, Ireland",
    "neighborhood": null,
    "street": null,
    "city": "Galway",
    "postalCode": null,
    "state": null,
    "countryCode": "IE",
    "claimThisBusiness": false,
    "location": {
      "lat": 53.2771129,
      "lng": -9.0105619
    },
    "totalScore": 4,
    "permanentlyClosed": false,
    "temporarilyClosed": false,
    "placeId": "ChIJZ5kEq9KWW0gRIaZ1wjgveUE",
    "categories": [
      "Bus stop"
    ],
    "fid": "0x485b96d2ab049967:0x41792f38c275a621",
    "cid": "4717854005474469409",
    "reviewsCount": 2,
    "imageCategories": [],
    "scrapedAt": "2025-11-22T11:42:20.886Z",
    "googleFoodUrl": null,
    "hotelAds": [],
    "openingHours": [],
    "peopleAlsoSearch": [],
    "placesTags": [],
    "reviewsTags": [],
    "additionalInfo": {
      "Getting here": [
        {
          "24-hour transit available": true
        }
      ]
    },
    "gasPrices": [],
    "url": "https://www.google.com/maps/search/?api=1&query=GMIT&query_place_id=ChIJZ5kEq9KWW0gRIaZ1wjgveUE",
    "searchPageUrl": "https://www.google.com/maps/search/ALL_PLACES_NO_SEARCH/@53.2841306,-9.01445064208535,16z",
    "searchString": "ALL_PLACES_NO_SEARCH",
    "language": "en",
    "rank": 45,
    "isAdvertisement": false,
    "kgmid": "/g/1ptwbfnp8"
  },
  {
    "title": "The Merlin Bar",
    "price": "$",
    "categoryName": "Bar",
    "address": "THE MERLIN BAR MERLIN PARK, Co. Galway, H91 DC3W, Ireland",
    "neighborhood": null,
    "street": "THE MERLIN BAR MERLIN PARK",
    "city": "Galway",
    "postalCode": "H91 DC3W",
    "state": null,
    "countryCode": "IE",
    "website": "https://oymaps.com/the-merlin-bar-carryout-off-licence-229920-web",
    "phone": "+353 91 763 522",
    "phoneUnformatted": "+35391763522",
    "claimThisBusiness": false,
    "location": {
      "lat": 53.2760204,
      "lng": -9.0035393
    },
    "totalScore": 4.5,
    "permanentlyClosed": false,
    "temporarilyClosed": false,
    "placeId": "ChIJhUIwwC2RW0gRPAhdfTB0Ee8",
    "categories": [
      "Bar",
      "State liquor store"
    ],
    "fid": "0x485b912dc0304285:0xef1174307d5d083c",
    "cid": "17226677801279359036",
    "reviewsCount": 222,
    "imageCategories": [],
    "scrapedAt": "2025-11-22T11:42:20.886Z",
    "googleFoodUrl": null,
    "hotelAds": [],
    "openingHours": [
      {
        "day": "Monday",
        "hours": "12 to 11:30 PM"
      },
      {
        "day": "Tuesday",
        "hours": "12 to 11:30 PM"
      },
      {
        "day": "Wednesday",
        "hours": "12 to 11:30 PM"
      },
      {
        "day": "Thursday",
        "hours": "12 to 11:30 PM"
      },
      {
        "day": "Friday",
        "hours": "12 PM to 12:30 AM"
      },
      {
        "day": "Saturday",
        "hours": "12 PM to 12:30 AM"
      },
      {
        "day": "Sunday",
        "hours": "12:30 to 11 PM"
      }
    ],
    "peopleAlsoSearch": [],
    "placesTags": [],
    "reviewsTags": [],
    "additionalInfo": {
      "Service options": [
        {
          "Delivery": false
        },
        {
          "Takeout": false
        },
        {
          "Dine-in": false
        }
      ],
      "Highlights": [
        {
          "Great beer selection": true
        },
        {
          "Sports": true
        }
      ],
      "Accessibility": [
        {
          "Wheelchair accessible entrance": true
        },
        {
          "Wheelchair accessible parking lot": true
        },
        {
          "Wheelchair accessible restroom": true
        },
        {
          "Wheelchair accessible seating": true
        }
      ],
      "Offerings": [
        {
          "Alcohol": true
        },
        {
          "Beer": true
        },
        {
          "Hard liquor": true
        },
        {
          "Wine": true
        }
      ],
      "Dining options": [
        {
          "Table service": false
        }
      ],
      "Amenities": [
        {
          "Restroom": true
        },
        {
          "Wi-Fi": true
        },
        {
          "Free Wi-Fi": true
        }
      ],
      "Atmosphere": [
        {
          "Casual": true
        },
        {
          "Cozy": true
        }
      ],
      "Crowd": [
        {
          "Groups": true
        }
      ],
      "Planning": [
        {
          "Accepts reservations": false
        }
      ],
      "Payments": [
        {
          "Credit cards": true
        },
        {
          "Debit cards": true
        },
        {
          "NFC mobile payments": true
        },
        {
          "Credit cards": true
        }
      ],
      "Parking": [
        {
          "Free parking lot": true
        },
        {
          "Free street parking": true
        }
      ]
    },
    "gasPrices": [],
    "url": "https://www.google.com/maps/search/?api=1&query=The%20Merlin%20Bar&query_place_id=ChIJhUIwwC2RW0gRPAhdfTB0Ee8",
    "searchPageUrl": "https://www.google.com/maps/search/ALL_PLACES_NO_SEARCH/@53.2841306,-9.01445064208535,16z",
    "searchString": "ALL_PLACES_NO_SEARCH",
    "language": "en",
    "rank": 48,
    "isAdvertisement": false,
    "kgmid": "/g/11c48p8hlr"
  },
  {
    "title": "Corrib View Guesthouse",
    "price": null,
    "categoryName": "Lodging",
    "address": "12 Woodhaven, Merlin Park, Galway, H91 RR72, Ireland",
    "neighborhood": null,
    "street": "12 Woodhaven, Merlin Park",
    "city": "Galway",
    "postalCode": "H91 RR72",
    "state": null,
    "countryCode": "IE",
    "website": "https://sites.google.com/view/corrib-view-guesthouse/",
    "phone": "+353 91 755 667",
    "phoneUnformatted": "+35391755667",
    "claimThisBusiness": true,
    "location": {
      "lat": 53.2776684,
      "lng": -9.0039866
    },
    "totalScore": 4.2,
    "permanentlyClosed": false,
    "temporarilyClosed": false,
    "placeId": "ChIJ9UCg8S2RW0gRVhKjFsTCaOM",
    "categories": [
      "Lodging"
    ],
    "fid": "0x485b912df1a040f5:0xe368c2c416a31256",
    "cid": "16386561391636714070",
    "reviewsCount": 115,
    "imageCategories": [],
    "scrapedAt": "2025-11-22T11:42:20.886Z",
    "googleFoodUrl": null,
    "hotelStars": "3-star hotel",
    "hotelAds": [],
    "openingHours": [],
    "peopleAlsoSearch": [],
    "placesTags": [],
    "reviewsTags": [],
    "additionalInfo": {
      "Accessibility": [
        {
          "Wheelchair accessible parking lot": true
        }
      ]
    },
    "gasPrices": [],
    "url": "https://www.google.com/maps/search/?api=1&query=Corrib%20View%20Guesthouse&query_place_id=ChIJ9UCg8S2RW0gRVhKjFsTCaOM",
    "searchPageUrl": "https://www.google.com/maps/search/ALL_PLACES_NO_SEARCH/@53.2841306,-9.01445064208535,16z",
    "searchString": "ALL_PLACES_NO_SEARCH",
    "language": "en",
    "rank": 49,
    "isAdvertisement": false,
    "kgmid": "/g/1tdyvs5l"
  },
  {
    "title": "Woodhaven Lodge",
    "description": "Snug B&B featuring cosy rooms with en suite bathrooms, plus complimentary Wi-Fi.",
    "price": null,
    "categoryName": "Bed & breakfast",
    "address": "20 Woodhaven, Galway, H91 R793, Ireland",
    "neighborhood": null,
    "street": "20 Woodhaven",
    "city": "Galway",
    "postalCode": "H91 R793",
    "state": null,
    "countryCode": "IE",
    "website": "http://www.woodhavenlodge.com/",
    "phone": "+353 91 753 806",
    "phoneUnformatted": "+35391753806",
    "claimThisBusiness": true,
    "location": {
      "lat": 53.2768357,
      "lng": -9.0046226
    },
    "totalScore": 4.5,
    "permanentlyClosed": false,
    "temporarilyClosed": false,
    "placeId": "ChIJn6Iuky2RW0gRkl2Q-ULrREo",
    "categories": [
      "Bed & breakfast"
    ],
    "fid": "0x485b912d932ea29f:0x4a44eb42f9905d92",
    "cid": "5351660930110348690",
    "reviewsCount": 58,
    "imageCategories": [],
    "scrapedAt": "2025-11-22T11:42:20.886Z",
    "googleFoodUrl": null,
    "hotelAds": [],
    "openingHours": [],
    "peopleAlsoSearch": [],
    "placesTags": [],
    "reviewsTags": [],
    "gasPrices": [],
    "url": "https://www.google.com/maps/search/?api=1&query=Woodhaven%20Lodge&query_place_id=ChIJn6Iuky2RW0gRkl2Q-ULrREo",
    "searchPageUrl": "https://www.google.com/maps/search/ALL_PLACES_NO_SEARCH/@53.2841306,-9.01445064208535,16z",
    "searchString": "ALL_PLACES_NO_SEARCH",
    "language": "en",
    "rank": 51,
    "isAdvertisement": false,
    "kgmid": "/g/1tf4dfql"
  },
  {
    "title": "Aramark",
    "price": null,
    "categoryName": "Cafe",
    "address": "Clanwilliam House, Merlin Park Ln, Galway, Ireland",
    "neighborhood": null,
    "street": "Clanwilliam House, Merlin Park Ln",
    "city": "Galway",
    "postalCode": null,
    "state": null,
    "countryCode": "IE",
    "phone": "+353 91 775 686",
    "phoneUnformatted": "+35391775686",
    "claimThisBusiness": true,
    "location": {
      "lat": 53.2768334,
      "lng": -8.994719
    },
    "totalScore": 4.3,
    "permanentlyClosed": false,
    "temporarilyClosed": false,
    "placeId": "ChIJ2-cKZiWRW0gRqx-K-DlRrQg",
    "categories": [
      "Cafe"
    ],
    "fid": "0x485b9125660ae7db:0x8ad5139f88a1fab",
    "cid": "625245232699154347",
    "reviewsCount": 44,
    "imageCategories": [],
    "scrapedAt": "2025-11-22T11:42:20.886Z",
    "googleFoodUrl": null,
    "hotelAds": [],
    "openingHours": [
      {
        "day": "Monday",
        "hours": "7:30 AM to 4 PM"
      },
      {
        "day": "Tuesday",
        "hours": "7:30 AM to 4 PM"
      },
      {
        "day": "Wednesday",
        "hours": "7:30 AM to 4 PM"
      },
      {
        "day": "Thursday",
        "hours": "7:30 AM to 4 PM"
      },
      {
        "day": "Friday",
        "hours": "7:30 AM to 2:30 PM"
      },
      {
        "day": "Saturday",
        "hours": "Closed"
      },
      {
        "day": "Sunday",
        "hours": "Closed"
      }
    ],
    "peopleAlsoSearch": [],
    "placesTags": [],
    "reviewsTags": [],
    "additionalInfo": {
      "Service options": [
        {
          "Takeout": true
        }
      ],
      "Highlights": [
        {
          "Great coffee": true
        },
        {
          "Great tea selection": true
        }
      ],
      "Popular for": [
        {
          "Solo dining": true
        }
      ],
      "Accessibility": [
        {
          "Wheelchair accessible entrance": true
        },
        {
          "Wheelchair accessible parking lot": true
        }
      ],
      "Offerings": [
        {
          "Coffee": true
        },
        {
          "Quick bite": true
        }
      ],
      "Atmosphere": [
        {
          "Casual": true
        }
      ],
      "Payments": [
        {
          "Credit cards": true
        },
        {
          "Debit cards": true
        },
        {
          "NFC mobile payments": true
        }
      ]
    },
    "gasPrices": [],
    "url": "https://www.google.com/maps/search/?api=1&query=Aramark&query_place_id=ChIJ2-cKZiWRW0gRqx-K-DlRrQg",
    "searchPageUrl": "https://www.google.com/maps/search/ALL_PLACES_NO_SEARCH/@53.2841306,-9.01445064208535,16z",
    "searchString": "ALL_PLACES_NO_SEARCH",
    "language": "en",
    "rank": 53,
    "isAdvertisement": false,
    "kgmid": "/g/11ck6xf16j"
  },
  {
    "title": "Unit 1 Merlin Park University Hospital",
    "price": null,
    "categoryName": "Hospital department",
    "address": "Galway, Ireland",
    "neighborhood": null,
    "street": null,
    "city": "Galway",
    "postalCode": null,
    "state": null,
    "countryCode": "IE",
    "claimThisBusiness": true,
    "location": {
      "lat": 53.276672,
      "lng": -8.9935511
    },
    "totalScore": 4.1,
    "permanentlyClosed": false,
    "temporarilyClosed": false,
    "placeId": "ChIJB5cl8aeRW0gRYsuE1MGC6l4",
    "categories": [
      "Hospital department"
    ],
    "fid": "0x485b91a7f1259707:0x5eea82c1d484cb62",
    "cid": "6839422753121291106",
    "reviewsCount": 14,
    "imageCategories": [],
    "scrapedAt": "2025-11-22T11:42:20.886Z",
    "googleFoodUrl": null,
    "hotelAds": [],
    "openingHours": [],
    "peopleAlsoSearch": [],
    "placesTags": [],
    "reviewsTags": [],
    "additionalInfo": {
      "Accessibility": [
        {
          "Wheelchair accessible entrance": true
        },
        {
          "Wheelchair accessible parking lot": true
        }
      ],
      "Payments": [
        {
          "Credit cards": true
        },
        {
          "NFC mobile payments": true
        }
      ]
    },
    "gasPrices": [],
    "url": "https://www.google.com/maps/search/?api=1&query=Unit%201%20Merlin%20Park%20University%20Hospital&query_place_id=ChIJB5cl8aeRW0gRYsuE1MGC6l4",
    "searchPageUrl": "https://www.google.com/maps/search/ALL_PLACES_NO_SEARCH/@53.2841306,-9.01445064208535,16z",
    "searchString": "ALL_PLACES_NO_SEARCH",
    "language": "en",
    "rank": 54,
    "isAdvertisement": false,
    "kgmid": "/g/11j4xv22lg"
  },
  {
    "title": "Merlin Park Hospital",
    "price": null,
    "categoryName": "Bus stop",
    "address": "Galway, Ireland",
    "neighborhood": null,
    "street": null,
    "city": "Galway",
    "postalCode": null,
    "state": null,
    "countryCode": "IE",
    "claimThisBusiness": false,
    "location": {
      "lat": 53.2772418,
      "lng": -8.9941611
    },
    "totalScore": 5,
    "permanentlyClosed": false,
    "temporarilyClosed": false,
    "placeId": "ChIJE7FJOCWRW0gRzjn4wY2enkU",
    "categories": [
      "Bus stop"
    ],
    "fid": "0x485b91253849b113:0x459e9e8dc1f839ce",
    "cid": "5016621366619158990",
    "reviewsCount": 2,
    "imageCategories": [],
    "scrapedAt": "2025-11-22T11:42:20.886Z",
    "googleFoodUrl": null,
    "hotelAds": [],
    "openingHours": [],
    "peopleAlsoSearch": [],
    "placesTags": [],
    "reviewsTags": [],
    "additionalInfo": {
      "Getting here": [
        {
          "24-hour transit available": true
        }
      ]
    },
    "gasPrices": [],
    "url": "https://www.google.com/maps/search/?api=1&query=Merlin%20Park%20Hospital&query_place_id=ChIJE7FJOCWRW0gRzjn4wY2enkU",
    "searchPageUrl": "https://www.google.com/maps/search/ALL_PLACES_NO_SEARCH/@53.2841306,-9.01445064208535,16z",
    "searchString": "ALL_PLACES_NO_SEARCH",
    "language": "en",
    "rank": 55,
    "isAdvertisement": false,
    "kgmid": "/g/1ptxnzr5g"
  },
  {
    "title": "The Meadows",
    "price": null,
    "categoryName": "Wildlife park",
    "address": "Old Dublin Rd, Galway, Ireland",
    "neighborhood": null,
    "street": "Old Dublin Rd",
    "city": "Galway",
    "postalCode": null,
    "state": null,
    "countryCode": "IE",
    "website": "https://www.facebook.com/groups/128207273995064/",
    "claimThisBusiness": true,
    "location": {
      "lat": 53.275452,
      "lng": -8.9977967
    },
    "totalScore": 4.2,
    "permanentlyClosed": false,
    "temporarilyClosed": false,
    "placeId": "ChIJQwjB_y6RW0gRju0XDVBp6cg",
    "categories": [
      "Wildlife park"
    ],
    "fid": "0x485b912effc10843:0xc8e969500d17ed8e",
    "cid": "14477218269697142158",
    "reviewsCount": 16,
    "imageCategories": [],
    "scrapedAt": "2025-11-22T11:42:20.886Z",
    "googleFoodUrl": null,
    "hotelAds": [],
    "openingHours": [
      {
        "day": "Monday",
        "hours": "Open 24 hours"
      },
      {
        "day": "Tuesday",
        "hours": "Open 24 hours"
      },
      {
        "day": "Wednesday",
        "hours": "Open 24 hours"
      },
      {
        "day": "Thursday",
        "hours": "Open 24 hours"
      },
      {
        "day": "Friday",
        "hours": "Open 24 hours"
      },
      {
        "day": "Saturday",
        "hours": "Open 24 hours"
      },
      {
        "day": "Sunday",
        "hours": "Open 24 hours"
      }
    ],
    "peopleAlsoSearch": [],
    "placesTags": [],
    "reviewsTags": [],
    "additionalInfo": {
      "Children": [
        {
          "Good for kids": true
        }
      ]
    },
    "gasPrices": [],
    "url": "https://www.google.com/maps/search/?api=1&query=The%20Meadows&query_place_id=ChIJQwjB_y6RW0gRju0XDVBp6cg",
    "searchPageUrl": "https://www.google.com/maps/search/ALL_PLACES_NO_SEARCH/@53.2841306,-9.01445064208535,16z",
    "searchString": "ALL_PLACES_NO_SEARCH",
    "language": "en",
    "rank": 56,
    "isAdvertisement": false,
    "kgmid": "/g/11c5g9y9h3"
  },
  {
    "title": "Merlin Park University Hospital",
    "price": null,
    "categoryName": "Hospital",
    "address": "EC5, Old Dublin Rd, Galway, Ireland",
    "neighborhood": null,
    "street": "EC5, Old Dublin Rd",
    "city": "Galway",
    "postalCode": null,
    "state": null,
    "countryCode": "IE",
    "website": "https://www2.hse.ie/services/hospitals/merlin-park-university-hospital/",
    "phone": "+353 91 544 544",
    "phoneUnformatted": "+35391544544",
    "claimThisBusiness": false,
    "location": {
      "lat": 53.2775573,
      "lng": -8.9905685
    },
    "totalScore": 4.4,
    "permanentlyClosed": false,
    "temporarilyClosed": false,
    "placeId": "ChIJo9Yw6iSRW0gRpMHfL0NM91I",
    "categories": [
      "Hospital"
    ],
    "fid": "0x485b9124ea30d6a3:0x52f74c432fdfc1a4",
    "cid": "5978330881807335844",
    "reviewsCount": 67,
    "imageCategories": [],
    "scrapedAt": "2025-11-22T11:42:20.886Z",
    "googleFoodUrl": null,
    "hotelAds": [],
    "openingHours": [
      {
        "day": "Monday",
        "hours": "Open 24 hours"
      },
      {
        "day": "Tuesday",
        "hours": "Open 24 hours"
      },
      {
        "day": "Wednesday",
        "hours": "Open 24 hours"
      },
      {
        "day": "Thursday",
        "hours": "Open 24 hours"
      },
      {
        "day": "Friday",
        "hours": "Open 24 hours"
      },
      {
        "day": "Saturday",
        "hours": "Open 24 hours"
      },
      {
        "day": "Sunday",
        "hours": "Open 24 hours"
      }
    ],
    "peopleAlsoSearch": [],
    "placesTags": [],
    "reviewsTags": [],
    "additionalInfo": {
      "Accessibility": [
        {
          "Wheelchair accessible entrance": true
        },
        {
          "Wheelchair accessible parking lot": true
        }
      ],
      "Offerings": [
        {
          "Medication disposal": true
        }
      ],
      "Payments": [
        {
          "Credit cards": true
        },
        {
          "Debit cards": true
        },
        {
          "NFC mobile payments": true
        }
      ]
    },
    "gasPrices": [],
    "url": "https://www.google.com/maps/search/?api=1&query=Merlin%20Park%20University%20Hospital&query_place_id=ChIJo9Yw6iSRW0gRpMHfL0NM91I",
    "searchPageUrl": "https://www.google.com/maps/search/ALL_PLACES_NO_SEARCH/@53.2841306,-9.01445064208535,16z",
    "searchString": "ALL_PLACES_NO_SEARCH",
    "language": "en",
    "rank": 57,
    "isAdvertisement": false,
    "kgmid": "/g/12vrdnxmz"
  },
  {
    "title": "Timmy Maguire Crash Repairs Ltd",
    "price": null,
    "categoryName": "Auto body shop",
    "address": "Ballybane Industrial Estate, Unit 16, Ballybane, Co. Galway, Ireland",
    "neighborhood": "Ballybane",
    "street": "Ballybane Industrial Estate, Unit 16",
    "city": "Galway",
    "postalCode": null,
    "state": null,
    "countryCode": "IE",
    "phone": "+353 91 755 998",
    "phoneUnformatted": "+35391755998",
    "claimThisBusiness": false,
    "location": {
      "lat": 53.2942509,
      "lng": -9.0123831
    },
    "totalScore": 4.9,
    "permanentlyClosed": false,
    "temporarilyClosed": false,
    "placeId": "ChIJz53UiUyRW0gRsgvacz2qxus",
    "categories": [
      "Auto body shop"
    ],
    "fid": "0x485b914c89d49dcf:0xebc6aa3d73da0bb2",
    "cid": "16989453825215171506",
    "reviewsCount": 106,
    "imageCategories": [],
    "scrapedAt": "2025-11-22T11:42:20.902Z",
    "googleFoodUrl": null,
    "hotelAds": [],
    "openingHours": [
      {
        "day": "Monday",
        "hours": "8 AM to 5 PM"
      },
      {
        "day": "Tuesday",
        "hours": "8 AM to 5 PM"
      },
      {
        "day": "Wednesday",
        "hours": "8 AM to 5 PM"
      },
      {
        "day": "Thursday",
        "hours": "8 AM to 5 PM"
      },
      {
        "day": "Friday",
        "hours": "8 AM to 5 PM"
      },
      {
        "day": "Saturday",
        "hours": "Closed"
      },
      {
        "day": "Sunday",
        "hours": "Closed"
      }
    ],
    "peopleAlsoSearch": [],
    "placesTags": [],
    "reviewsTags": [],
    "additionalInfo": {
      "Accessibility": [
        {
          "Wheelchair accessible entrance": true
        },
        {
          "Wheelchair accessible parking lot": true
        }
      ],
      "Amenities": [
        {
          "Mechanic": true
        },
        {
          "Restroom": true
        }
      ],
      "Planning": [
        {
          "Appointments recommended": true
        }
      ],
      "Payments": [
        {
          "Credit cards": true
        },
        {
          "Debit cards": true
        },
        {
          "NFC mobile payments": true
        }
      ]
    },
    "gasPrices": [],
    "url": "https://www.google.com/maps/search/?api=1&query=Timmy%20Maguire%20Crash%20Repairs%20Ltd&query_place_id=ChIJz53UiUyRW0gRsgvacz2qxus",
    "searchPageUrl": "https://www.google.com/maps/search/ALL_PLACES_NO_SEARCH/@53.304661890806955,-9.031607371042677,16z",
    "searchString": "ALL_PLACES_NO_SEARCH",
    "language": "en",
    "rank": 41,
    "isAdvertisement": false,
    "kgmid": "/g/11bv1cml4p"
  },
  {
    "title": "Elite Cakes Boutique",
    "price": null,
    "categoryName": "Bakery",
    "address": "Ballybane Industrial Estate, Tuam Rd, Galway, H91 XDD4, Ireland",
    "neighborhood": null,
    "street": "Ballybane Industrial Estate, Tuam Rd",
    "city": "Galway",
    "postalCode": "H91 XDD4",
    "state": null,
    "countryCode": "IE",
    "website": "http://www.elitecakesboutique.ie/",
    "phone": "+353 89 961 6876",
    "phoneUnformatted": "+353899616876",
    "claimThisBusiness": false,
    "location": {
      "lat": 53.2939244,
      "lng": -9.0137694
    },
    "totalScore": 4.9,
    "permanentlyClosed": false,
    "temporarilyClosed": false,
    "placeId": "ChIJ80R4PJWWW0gRuMiXWmRg9TI",
    "categories": [
      "Bakery",
      "Cake shop",
      "Cupcake shop",
      "Dessert shop"
    ],
    "fid": "0x485b96953c7844f3:0x32f560645a97c8b8",
    "cid": "3671947055323400376",
    "reviewsCount": 203,
    "imageCategories": [],
    "scrapedAt": "2025-11-22T11:42:20.902Z",
    "googleFoodUrl": null,
    "hotelAds": [],
    "openingHours": [
      {
        "day": "Monday",
        "hours": "Closed"
      },
      {
        "day": "Tuesday",
        "hours": "9 AM to 5 PM"
      },
      {
        "day": "Wednesday",
        "hours": "9 AM to 5 PM"
      },
      {
        "day": "Thursday",
        "hours": "9 AM to 5 PM"
      },
      {
        "day": "Friday",
        "hours": "9 AM to 5 PM"
      },
      {
        "day": "Saturday",
        "hours": "9 AM to 1 PM"
      },
      {
        "day": "Sunday",
        "hours": "Closed"
      }
    ],
    "peopleAlsoSearch": [],
    "placesTags": [],
    "reviewsTags": [],
    "additionalInfo": {
      "Service options": [
        {
          "Delivery": true
        },
        {
          "In-store pickup": true
        }
      ],
      "Planning": [
        {
          "Quick visit": true
        }
      ],
      "Payments": [
        {
          "Credit cards": true
        },
        {
          "Debit cards": true
        },
        {
          "NFC mobile payments": true
        }
      ]
    },
    "gasPrices": [],
    "url": "https://www.google.com/maps/search/?api=1&query=Elite%20Cakes%20Boutique&query_place_id=ChIJ80R4PJWWW0gRuMiXWmRg9TI",
    "searchPageUrl": "https://www.google.com/maps/search/ALL_PLACES_NO_SEARCH/@53.304661890806955,-9.031607371042677,16z",
    "searchString": "ALL_PLACES_NO_SEARCH",
    "language": "en",
    "rank": 42,
    "isAdvertisement": false,
    "kgmid": "/g/11gc_164_t"
  },
  {
    "title": "Boston Scientific building 2",
    "price": null,
    "categoryName": "Medical equipment manufacturer",
    "address": "Boston Scientific, Galway, 2, Ireland",
    "neighborhood": null,
    "street": "Boston Scientific",
    "city": "Galway",
    "postalCode": "2",
    "state": null,
    "countryCode": "IE",
    "website": "https://jobs.bostonscientific.com/?locale=en_US",
    "phone": "+353 91 756 300",
    "phoneUnformatted": "+35391756300",
    "claimThisBusiness": true,
    "location": {
      "lat": 53.2935965,
      "lng": -9.0059429
    },
    "totalScore": 4.5,
    "permanentlyClosed": false,
    "temporarilyClosed": false,
    "placeId": "ChIJt5XditSRW0gRsN3HSPptG6M",
    "categories": [
      "Medical equipment manufacturer"
    ],
    "fid": "0x485b91d48add95b7:0xa31b6dfa48c7ddb0",
    "cid": "11753108574283750832",
    "reviewsCount": 11,
    "imageCategories": [],
    "scrapedAt": "2025-11-22T11:42:20.902Z",
    "googleFoodUrl": null,
    "hotelAds": [],
    "openingHours": [
      {
        "day": "Monday",
        "hours": "9 AM to 5 PM"
      },
      {
        "day": "Tuesday",
        "hours": "9 AM to 5 PM"
      },
      {
        "day": "Wednesday",
        "hours": "9 AM to 5 PM"
      },
      {
        "day": "Thursday",
        "hours": "9 AM to 5 PM"
      },
      {
        "day": "Friday",
        "hours": "9 AM to 5 PM"
      },
      {
        "day": "Saturday",
        "hours": "Closed"
      },
      {
        "day": "Sunday",
        "hours": "Closed"
      }
    ],
    "peopleAlsoSearch": [],
    "placesTags": [],
    "reviewsTags": [],
    "additionalInfo": {
      "Accessibility": [
        {
          "Wheelchair accessible entrance": true
        },
        {
          "Wheelchair accessible parking lot": true
        }
      ],
      "Payments": [
        {
          "Debit cards": true
        },
        {
          "Credit cards": true
        }
      ]
    },
    "gasPrices": [],
    "url": "https://www.google.com/maps/search/?api=1&query=Boston%20Scientific%20building%202&query_place_id=ChIJt5XditSRW0gRsN3HSPptG6M",
    "searchPageUrl": "https://www.google.com/maps/search/ALL_PLACES_NO_SEARCH/@53.304661890806955,-9.031607371042677,16z",
    "searchString": "ALL_PLACES_NO_SEARCH",
    "language": "en",
    "rank": 43,
    "isAdvertisement": false,
    "kgmid": "/g/11rspz7d1g"
  },
  {
    "title": "Aviva",
    "price": null,
    "categoryName": "Corporate office",
    "address": "Ballybrit, Galway, H91 WP08, Ireland",
    "neighborhood": "Ballybrit",
    "street": null,
    "city": "Galway",
    "postalCode": "H91 WP08",
    "state": null,
    "countryCode": "IE",
    "website": "https://www.aviva.ie/",
    "phone": "+353 1 898 6000",
    "phoneUnformatted": "+35318986000",
    "claimThisBusiness": false,
    "location": {
      "lat": 53.2920598,
      "lng": -9.0074287
    },
    "totalScore": 4,
    "permanentlyClosed": false,
    "temporarilyClosed": false,
    "placeId": "ChIJxVV6eC6WW0gR4ndF4_DY1tw",
    "categories": [
      "Corporate office"
    ],
    "fid": "0x485b962e787a55c5:0xdcd6d8f0e34577e2",
    "cid": "15913144862476957666",
    "reviewsCount": 136,
    "imageCategories": [],
    "scrapedAt": "2025-11-22T11:42:20.902Z",
    "googleFoodUrl": null,
    "hotelAds": [],
    "openingHours": [
      {
        "day": "Monday",
        "hours": "9 AM to 6 PM"
      },
      {
        "day": "Tuesday",
        "hours": "9 AM to 6 PM"
      },
      {
        "day": "Wednesday",
        "hours": "9 AM to 6 PM"
      },
      {
        "day": "Thursday",
        "hours": "9 AM to 6 PM"
      },
      {
        "day": "Friday",
        "hours": "9 AM to 6 PM"
      },
      {
        "day": "Saturday",
        "hours": "Closed"
      },
      {
        "day": "Sunday",
        "hours": "Closed"
      }
    ],
    "peopleAlsoSearch": [],
    "placesTags": [],
    "reviewsTags": [],
    "additionalInfo": {
      "Accessibility": [
        {
          "Wheelchair accessible entrance": true
        },
        {
          "Wheelchair accessible parking lot": true
        }
      ],
      "Amenities": [
        {
          "Restroom": true
        }
      ]
    },
    "gasPrices": [],
    "url": "https://www.google.com/maps/search/?api=1&query=Aviva&query_place_id=ChIJxVV6eC6WW0gR4ndF4_DY1tw",
    "searchPageUrl": "https://www.google.com/maps/search/ALL_PLACES_NO_SEARCH/@53.304661890806955,-9.031607371042677,16z",
    "searchString": "ALL_PLACES_NO_SEARCH",
    "language": "en",
    "rank": 44,
    "isAdvertisement": false,
    "kgmid": "/g/1q62l0grz"
  },
  {
    "title": "Project Corrib",
    "price": null,
    "categoryName": "Construction company",
    "address": "Unnamed Road, Co. Galway, Ireland",
    "neighborhood": null,
    "street": "Unnamed Road",
    "city": "Galway",
    "postalCode": null,
    "state": null,
    "countryCode": "IE",
    "claimThisBusiness": true,
    "location": {
      "lat": 53.2941662,
      "lng": -9.0071011
    },
    "totalScore": 4.8,
    "permanentlyClosed": false,
    "temporarilyClosed": false,
    "placeId": "ChIJK5FyWPWRW0gRQIbYvUkLdEk",
    "categories": [
      "Construction company"
    ],
    "fid": "0x485b91f55872912b:0x49740b49bdd88640",
    "cid": "5292867873412777536",
    "reviewsCount": 16,
    "imageCategories": [],
    "scrapedAt": "2025-11-22T11:42:20.902Z",
    "googleFoodUrl": null,
    "hotelAds": [],
    "openingHours": [
      {
        "day": "Monday",
        "hours": "8 AM to 6 PM"
      },
      {
        "day": "Tuesday",
        "hours": "8 AM to 6 PM"
      },
      {
        "day": "Wednesday",
        "hours": "8 AM to 6 PM"
      },
      {
        "day": "Thursday",
        "hours": "8 AM to 6 PM"
      },
      {
        "day": "Friday",
        "hours": "8 AM to 6 PM"
      },
      {
        "day": "Saturday",
        "hours": "Closed"
      },
      {
        "day": "Sunday",
        "hours": "Closed"
      }
    ],
    "peopleAlsoSearch": [],
    "placesTags": [],
    "reviewsTags": [],
    "additionalInfo": {
      "Accessibility": [
        {
          "Wheelchair accessible entrance": true
        },
        {
          "Wheelchair accessible parking lot": true
        }
      ]
    },
    "gasPrices": [],
    "url": "https://www.google.com/maps/search/?api=1&query=Project%20Corrib&query_place_id=ChIJK5FyWPWRW0gRQIbYvUkLdEk",
    "searchPageUrl": "https://www.google.com/maps/search/ALL_PLACES_NO_SEARCH/@53.304661890806955,-9.031607371042677,16z",
    "searchString": "ALL_PLACES_NO_SEARCH",
    "language": "en",
    "rank": 45,
    "isAdvertisement": false,
    "kgmid": "/g/11kwxtmv_w"
  },
  {
    "title": "Ballybane Ind Estate",
    "price": null,
    "categoryName": "Bus stop",
    "address": "Galway, Ireland",
    "neighborhood": null,
    "street": null,
    "city": "Galway",
    "postalCode": null,
    "state": null,
    "countryCode": "IE",
    "claimThisBusiness": false,
    "location": {
      "lat": 53.2919568,
      "lng": -9.006667
    },
    "totalScore": 4,
    "permanentlyClosed": false,
    "temporarilyClosed": false,
    "placeId": "ChIJGVPZcUmRW0gRNwTDVXm2j20",
    "categories": [
      "Bus stop"
    ],
    "fid": "0x485b914971d95319:0x6d8fb67955c30437",
    "cid": "7894729304049910839",
    "reviewsCount": 1,
    "imageCategories": [],
    "scrapedAt": "2025-11-22T11:42:20.902Z",
    "googleFoodUrl": null,
    "hotelAds": [],
    "openingHours": [],
    "peopleAlsoSearch": [],
    "placesTags": [],
    "reviewsTags": [],
    "additionalInfo": {
      "Getting here": [
        {
          "24-hour transit available": true
        }
      ]
    },
    "gasPrices": [],
    "url": "https://www.google.com/maps/search/?api=1&query=Ballybane%20Ind%20Estate&query_place_id=ChIJGVPZcUmRW0gRNwTDVXm2j20",
    "searchPageUrl": "https://www.google.com/maps/search/ALL_PLACES_NO_SEARCH/@53.304661890806955,-9.031607371042677,16z",
    "searchString": "ALL_PLACES_NO_SEARCH",
    "language": "en",
    "rank": 46,
    "isAdvertisement": false,
    "kgmid": "/g/11c0xnl43b"
  },
  {
    "title": "DWS Facility Services",
    "price": null,
    "categoryName": "Electrical engineer",
    "address": "56, Ballybane Beg, Ballybane Ind Est, Tuam Rd, Galway, Ireland",
    "neighborhood": null,
    "street": "56, Ballybane Beg, Ballybane Ind Est, Tuam Rd",
    "city": "Galway",
    "postalCode": null,
    "state": null,
    "countryCode": "IE",
    "website": "http://www.dwsfs.ie/",
    "phone": "+353 91 701 042",
    "phoneUnformatted": "+35391701042",
    "claimThisBusiness": false,
    "location": {
      "lat": 53.2944054,
      "lng": -9.008671
    },
    "totalScore": 5,
    "permanentlyClosed": false,
    "temporarilyClosed": false,
    "placeId": "ChIJ656BAkyRW0gRfHMAHE6DXl8",
    "categories": [
      "Electrical engineer",
      "Air compressor repair service",
      "Automation company",
      "Construction company",
      "Electrical installation service",
      "HVAC contractor",
      "Instrumentation engineer",
      "Machine maintenance service",
      "Mechanical engineer",
      "Telecommunications contractor"
    ],
    "fid": "0x485b914c02819eeb:0x5f5e834e1c00737c",
    "cid": "6872074452914434940",
    "reviewsCount": 1,
    "imageCategories": [],
    "scrapedAt": "2025-11-22T11:42:20.902Z",
    "googleFoodUrl": null,
    "hotelAds": [],
    "openingHours": [
      {
        "day": "Monday",
        "hours": "8 AM to 5 PM"
      },
      {
        "day": "Tuesday",
        "hours": "8 AM to 5 PM"
      },
      {
        "day": "Wednesday",
        "hours": "8 AM to 5 PM"
      },
      {
        "day": "Thursday",
        "hours": "8 AM to 5 PM"
      },
      {
        "day": "Friday",
        "hours": "9 AM to 4 PM"
      },
      {
        "day": "Saturday",
        "hours": "Closed"
      },
      {
        "day": "Sunday",
        "hours": "Closed"
      }
    ],
    "peopleAlsoSearch": [],
    "placesTags": [],
    "reviewsTags": [],
    "additionalInfo": {
      "Accessibility": [
        {
          "Wheelchair accessible parking lot": true
        }
      ]
    },
    "gasPrices": [],
    "url": "https://www.google.com/maps/search/?api=1&query=DWS%20Facility%20Services&query_place_id=ChIJ656BAkyRW0gRfHMAHE6DXl8",
    "searchPageUrl": "https://www.google.com/maps/search/ALL_PLACES_NO_SEARCH/@53.304661890806955,-9.031607371042677,16z",
    "searchString": "ALL_PLACES_NO_SEARCH",
    "language": "en",
    "rank": 47,
    "isAdvertisement": false,
    "kgmid": "/g/11bwnd386y"
  },
  {
    "title": "Ballinfoile Mór Community Garden",
    "price": null,
    "categoryName": "Garden",
    "address": "Headford Rd, Galway, Ireland",
    "neighborhood": null,
    "street": "Headford Rd",
    "city": "Galway",
    "postalCode": null,
    "state": null,
    "countryCode": "IE",
    "claimThisBusiness": true,
    "location": {
      "lat": 53.2904229,
      "lng": -9.0358505
    },
    "totalScore": 4.7,
    "permanentlyClosed": false,
    "temporarilyClosed": false,
    "placeId": "ChIJLyrsbtqXW0gRupIjKCKhpws",
    "categories": [
      "Garden"
    ],
    "fid": "0x485b97da6eec2a2f:0xba7a122282392ba",
    "cid": "839817023602266810",
    "reviewsCount": 11,
    "imageCategories": [],
    "scrapedAt": "2025-11-22T11:42:20.903Z",
    "googleFoodUrl": null,
    "hotelAds": [],
    "openingHours": [
      {
        "day": "Monday",
        "hours": "Closed"
      },
      {
        "day": "Tuesday",
        "hours": "Closed"
      },
      {
        "day": "Wednesday",
        "hours": "11 AM to 5 PM"
      },
      {
        "day": "Thursday",
        "hours": "Closed"
      },
      {
        "day": "Friday",
        "hours": "Closed"
      },
      {
        "day": "Saturday",
        "hours": "11 AM to 5 PM"
      },
      {
        "day": "Sunday",
        "hours": "Closed"
      }
    ],
    "peopleAlsoSearch": [],
    "placesTags": [],
    "reviewsTags": [],
    "additionalInfo": {
      "Accessibility": [
        {
          "Wheelchair accessible entrance": true
        }
      ],
      "Children": [
        {
          "Good for kids": true
        }
      ]
    },
    "gasPrices": [],
    "url": "https://www.google.com/maps/search/?api=1&query=Ballinfoile%20M%C3%B3r%20Community%20Garden&query_place_id=ChIJLyrsbtqXW0gRupIjKCKhpws",
    "searchPageUrl": "https://www.google.com/maps/search/ALL_PLACES_NO_SEARCH/@53.304661890806955,-9.031607371042677,16z",
    "searchString": "ALL_PLACES_NO_SEARCH",
    "language": "en",
    "rank": 48,
    "isAdvertisement": false,
    "kgmid": "/g/11fct19nnj"
  },
  {
    "title": "Galway Autos",
    "price": null,
    "categoryName": "Car dealer",
    "address": "Riverside Industrial Estate, Tuam Rd, Galway, Ireland",
    "neighborhood": null,
    "street": "Riverside Industrial Estate, Tuam Rd",
    "city": "Galway",
    "postalCode": null,
    "state": null,
    "countryCode": "IE",
    "website": "http://www.galwayautos.ie/",
    "phone": "+353 87 718 3937",
    "phoneUnformatted": "+353877183937",
    "claimThisBusiness": false,
    "location": {
      "lat": 53.2895032,
      "lng": -9.0266031
    },
    "totalScore": 4.9,
    "permanentlyClosed": false,
    "temporarilyClosed": false,
    "placeId": "ChIJ9RrRCCiXW0gRepLTkfsK_fM",
    "categories": [
      "Car dealer",
      "Used car dealer"
    ],
    "fid": "0x485b972808d11af5:0xf3fd0afb91d3927a",
    "cid": "17581220595923915386",
    "reviewsCount": 480,
    "imageCategories": [],
    "scrapedAt": "2025-11-22T11:42:20.903Z",
    "googleFoodUrl": null,
    "hotelAds": [],
    "openingHours": [
      {
        "day": "Monday",
        "hours": "9 AM to 7 PM"
      },
      {
        "day": "Tuesday",
        "hours": "9 AM to 6 PM"
      },
      {
        "day": "Wednesday",
        "hours": "9 AM to 6 PM"
      },
      {
        "day": "Thursday",
        "hours": "9 AM to 6 PM"
      },
      {
        "day": "Friday",
        "hours": "9 AM to 6 PM"
      },
      {
        "day": "Saturday",
        "hours": "10 AM to 3:30 PM"
      },
      {
        "day": "Sunday",
        "hours": "Closed"
      }
    ],
    "peopleAlsoSearch": [],
    "placesTags": [],
    "reviewsTags": [],
    "additionalInfo": {
      "Emergency help": [
        {
          "Accepts donations": true
        },
        {
          "Offers free products or services": true
        }
      ],
      "Service options": [
        {
          "Delivery": true
        },
        {
          "Onsite services": true
        }
      ],
      "Accessibility": [
        {
          "Wheelchair accessible entrance": true
        },
        {
          "Wheelchair accessible parking lot": true
        }
      ],
      "Offerings": [
        {
          "Car rental": true
        },
        {
          "Car wash": true
        },
        {
          "Oil change": true
        },
        {
          "Repair services": true
        },
        {
          "Used goods": true
        }
      ],
      "Amenities": [
        {
          "Gender-neutral restroom": true
        }
      ],
      "Crowd": [
        {
          "LGBTQ+ friendly": true
        },
        {
          "Transgender safespace": true
        }
      ],
      "Recycling": [
        {
          "Electronics": true
        }
      ],
      "Payments": [
        {
          "Checks": true
        },
        {
          "Credit cards": true
        },
        {
          "Debit cards": true
        },
        {
          "NFC mobile payments": true
        },
        {
          "Credit cards": true
        }
      ],
      "Parking": [
        {
          "Free parking garage": true
        },
        {
          "Free parking lot": true
        },
        {
          "Free street parking": true
        },
        {
          "On-site parking": true
        }
      ]
    },
    "gasPrices": [],
    "url": "https://www.google.com/maps/search/?api=1&query=Galway%20Autos&query_place_id=ChIJ9RrRCCiXW0gRepLTkfsK_fM",
    "searchPageUrl": "https://www.google.com/maps/search/ALL_PLACES_NO_SEARCH/@53.304661890806955,-9.031607371042677,16z",
    "searchString": "ALL_PLACES_NO_SEARCH",
    "language": "en",
    "rank": 49,
    "isAdvertisement": false,
    "kgmid": "/g/11f7qyrhy3"
  },
  {
    "title": "U Store It Galway",
    "price": null,
    "categoryName": "Self-storage facility",
    "address": "Riverside Commercial Estate, Tuam Rd, Galway, H91 E9T1, Ireland",
    "neighborhood": null,
    "street": "Riverside Commercial Estate, Tuam Rd",
    "city": "Galway",
    "postalCode": "H91 E9T1",
    "state": null,
    "countryCode": "IE",
    "website": "https://ustoreit.ie/storage/galway/",
    "phone": "+353 91 771 325",
    "phoneUnformatted": "+35391771325",
    "claimThisBusiness": false,
    "location": {
      "lat": 53.2907397,
      "lng": -9.0262078
    },
    "totalScore": 4.8,
    "permanentlyClosed": false,
    "temporarilyClosed": false,
    "placeId": "ChIJV57b4baWW0gRn4IfNNUewmU",
    "categories": [
      "Self-storage facility",
      "Luggage storage facility",
      "Moving and storage service",
      "Packaging supply store",
      "Records storage facility"
    ],
    "fid": "0x485b96b6e1db9e57:0x65c21ed5341f829f",
    "cid": "7332457044363936415",
    "reviewsCount": 174,
    "imageCategories": [],
    "scrapedAt": "2025-11-22T11:42:20.903Z",
    "googleFoodUrl": null,
    "hotelAds": [],
    "openingHours": [
      {
        "day": "Monday",
        "hours": "8 AM to 5:30 PM"
      },
      {
        "day": "Tuesday",
        "hours": "8 AM to 5:30 PM"
      },
      {
        "day": "Wednesday",
        "hours": "8 AM to 5:30 PM"
      },
      {
        "day": "Thursday",
        "hours": "8 AM to 5:30 PM"
      },
      {
        "day": "Friday",
        "hours": "8 AM to 5:30 PM"
      },
      {
        "day": "Saturday",
        "hours": "10 AM to 4:30 PM"
      },
      {
        "day": "Sunday",
        "hours": "Closed"
      }
    ],
    "peopleAlsoSearch": [],
    "placesTags": [],
    "reviewsTags": [],
    "additionalInfo": {
      "Service options": [
        {
          "Onsite services": true
        }
      ],
      "Accessibility": [
        {
          "Wheelchair accessible entrance": true
        },
        {
          "Wheelchair accessible parking lot": true
        },
        {
          "Wheelchair accessible restroom": true
        },
        {
          "Wheelchair accessible seating": true
        }
      ],
      "Payments": [
        {
          "Credit cards": true
        },
        {
          "Debit cards": true
        },
        {
          "NFC mobile payments": true
        },
        {
          "Credit cards": true
        }
      ]
    },
    "gasPrices": [],
    "url": "https://www.google.com/maps/search/?api=1&query=U%20Store%20It%20Galway&query_place_id=ChIJV57b4baWW0gRn4IfNNUewmU",
    "searchPageUrl": "https://www.google.com/maps/search/ALL_PLACES_NO_SEARCH/@53.304661890806955,-9.031607371042677,16z",
    "searchString": "ALL_PLACES_NO_SEARCH",
    "language": "en",
    "rank": 50,
    "isAdvertisement": false,
    "kgmid": "/g/1tf8shtn"
  },
  {
    "title": "SAFETY DIRECT",
    "price": null,
    "categoryName": "Store",
    "address": "Riverside Commercial Estate, Galway, H91 X4DK, Ireland",
    "neighborhood": null,
    "street": "Riverside Commercial Estate",
    "city": "Galway",
    "postalCode": "H91 X4DK",
    "state": null,
    "countryCode": "IE",
    "website": "http://www.safetydirect.ie/",
    "phone": "+353 91 745 150",
    "phoneUnformatted": "+35391745150",
    "claimThisBusiness": false,
    "location": {
      "lat": 53.2895346,
      "lng": -9.025772
    },
    "totalScore": 4.5,
    "permanentlyClosed": false,
    "temporarilyClosed": false,
    "placeId": "ChIJSXg0qreWW0gRaVuaoorqEzY",
    "categories": [
      "Store",
      "Occupational safety and health",
      "Safety equipment supplier",
      "Wholesaler"
    ],
    "fid": "0x485b96b7aa347849:0x3613ea8aa29a5b69",
    "cid": "3896715983760022377",
    "reviewsCount": 95,
    "imageCategories": [],
    "scrapedAt": "2025-11-22T11:42:20.903Z",
    "googleFoodUrl": null,
    "hotelAds": [],
    "openingHours": [
      {
        "day": "Monday",
        "hours": "8:30 AM to 5:30 PM"
      },
      {
        "day": "Tuesday",
        "hours": "8:30 AM to 5:30 PM"
      },
      {
        "day": "Wednesday",
        "hours": "8:30 AM to 5:30 PM"
      },
      {
        "day": "Thursday",
        "hours": "8:30 AM to 5:30 PM"
      },
      {
        "day": "Friday",
        "hours": "8:30 AM to 5:30 PM"
      },
      {
        "day": "Saturday",
        "hours": "8:30 AM to 2 PM"
      },
      {
        "day": "Sunday",
        "hours": "Closed"
      }
    ],
    "peopleAlsoSearch": [],
    "placesTags": [],
    "reviewsTags": [],
    "additionalInfo": {
      "Service options": [
        {
          "Delivery": true
        },
        {
          "In-store pickup": true
        },
        {
          "In-store shopping": true
        }
      ],
      "Accessibility": [
        {
          "Wheelchair accessible entrance": true
        },
        {
          "Wheelchair accessible parking lot": true
        }
      ],
      "Planning": [
        {
          "Quick visit": true
        }
      ],
      "Payments": [
        {
          "Credit cards": true
        },
        {
          "Debit cards": true
        },
        {
          "NFC mobile payments": true
        },
        {
          "Credit cards": true
        }
      ],
      "Parking": [
        {
          "Free parking lot": true
        },
        {
          "On-site parking": true
        }
      ]
    },
    "gasPrices": [],
    "url": "https://www.google.com/maps/search/?api=1&query=SAFETY%20DIRECT&query_place_id=ChIJSXg0qreWW0gRaVuaoorqEzY",
    "searchPageUrl": "https://www.google.com/maps/search/ALL_PLACES_NO_SEARCH/@53.304661890806955,-9.031607371042677,16z",
    "searchString": "ALL_PLACES_NO_SEARCH",
    "language": "en",
    "rank": 51,
    "isAdvertisement": false,
    "kgmid": "/g/1hc3frq5q"
  },
  {
    "title": "Trappers Inn & Jackson's Restaurant",
    "price": "$",
    "categoryName": "Pub",
    "address": "Tuam Rd, Galway, H91 T88H, Ireland",
    "neighborhood": null,
    "street": "Tuam Rd",
    "city": "Galway",
    "postalCode": "H91 T88H",
    "state": null,
    "countryCode": "IE",
    "website": "https://www.facebook.com/The-Trappers-Inn-292207657582291/",
    "phone": "+353 91 751 228",
    "phoneUnformatted": "+35391751228",
    "claimThisBusiness": false,
    "location": {
      "lat": 53.289037,
      "lng": -9.0236207
    },
    "totalScore": 4.4,
    "permanentlyClosed": false,
    "temporarilyClosed": false,
    "placeId": "ChIJxxVaRraWW0gRv9iv6bVSnzQ",
    "categories": [
      "Pub",
      "Bar",
      "Breakfast restaurant",
      "Carvery",
      "Gastropub",
      "Live music bar",
      "Lunch restaurant",
      "Restaurant",
      "Sports bar"
    ],
    "fid": "0x485b96b6465a15c7:0x349f52b5e9afd8bf",
    "cid": "3791840352532420799",
    "reviewsCount": 896,
    "imageCategories": [],
    "scrapedAt": "2025-11-22T11:42:20.903Z",
    "googleFoodUrl": null,
    "hotelAds": [],
    "openingHours": [
      {
        "day": "Monday",
        "hours": "8 AM to 11:30 PM"
      },
      {
        "day": "Tuesday",
        "hours": "8 AM to 11:30 PM"
      },
      {
        "day": "Wednesday",
        "hours": "8 AM to 11:30 PM"
      },
      {
        "day": "Thursday",
        "hours": "8 AM to 11:30 PM"
      },
      {
        "day": "Friday",
        "hours": "8 AM to 12:30 AM"
      },
      {
        "day": "Saturday",
        "hours": "8 AM to 12:30 AM"
      },
      {
        "day": "Sunday",
        "hours": "9 AM to 11 PM"
      }
    ],
    "peopleAlsoSearch": [],
    "placesTags": [],
    "reviewsTags": [],
    "additionalInfo": {
      "Service options": [
        {
          "Outdoor seating": true
        },
        {
          "Dine-in": true
        },
        {
          "Delivery": false
        }
      ],
      "Highlights": [
        {
          "Great beer selection": true
        },
        {
          "Great cocktails": true
        },
        {
          "Great wine list": true
        },
        {
          "Live music": true
        },
        {
          "Live performances": true
        },
        {
          "Sports": true
        }
      ],
      "Popular for": [
        {
          "Solo dining": true
        }
      ],
      "Accessibility": [
        {
          "Wheelchair accessible entrance": true
        },
        {
          "Wheelchair accessible parking lot": true
        },
        {
          "Wheelchair accessible restroom": true
        },
        {
          "Wheelchair accessible seating": true
        }
      ],
      "Offerings": [
        {
          "Alcohol": true
        },
        {
          "Beer": true
        },
        {
          "Cocktails": true
        },
        {
          "Dancing": true
        },
        {
          "Food": true
        },
        {
          "Food at bar": true
        },
        {
          "Hard liquor": true
        },
        {
          "Private dining room": true
        },
        {
          "Wine": true
        }
      ],
      "Dining options": [
        {
          "Seating": true
        },
        {
          "Table service": true
        }
      ],
      "Amenities": [
        {
          "Restroom": true
        },
        {
          "Wi-Fi": true
        },
        {
          "Free Wi-Fi": true
        }
      ],
      "Atmosphere": [
        {
          "Casual": true
        },
        {
          "Cozy": true
        }
      ],
      "Crowd": [
        {
          "Groups": true
        },
        {
          "Tourists": true
        }
      ],
      "Planning": [
        {
          "Accepts reservations": true
        }
      ],
      "Payments": [
        {
          "Credit cards": true
        },
        {
          "Debit cards": true
        },
        {
          "NFC mobile payments": true
        },
        {
          "Credit cards": true
        }
      ],
      "Children": [
        {
          "Good for kids": true
        }
      ],
      "Parking": [
        {
          "Free parking lot": true
        },
        {
          "Free street parking": true
        },
        {
          "Usually plenty of parking": true
        }
      ]
    },
    "gasPrices": [],
    "url": "https://www.google.com/maps/search/?api=1&query=Trappers%20Inn%20%26%20Jackson's%20Restaurant&query_place_id=ChIJxxVaRraWW0gRv9iv6bVSnzQ",
    "searchPageUrl": "https://www.google.com/maps/search/ALL_PLACES_NO_SEARCH/@53.304661890806955,-9.031607371042677,16z",
    "searchString": "ALL_PLACES_NO_SEARCH",
    "language": "en",
    "rank": 52,
    "isAdvertisement": false,
    "kgmid": "/g/1td1jd9c"
  },
  {
    "title": "Discovery Church Galway",
    "price": null,
    "categoryName": "Place of worship",
    "address": "Industrial Development Agency Small Business Centre, Park Tuam Rd, Galway, H91 DHE0, Ireland",
    "neighborhood": null,
    "street": "Industrial Development Agency Small Business Centre, Park Tuam Rd",
    "city": "Galway",
    "postalCode": "H91 DHE0",
    "state": null,
    "countryCode": "IE",
    "website": "http://www.discoverychurch.ie/",
    "phone": "+353 91 773 655",
    "phoneUnformatted": "+35391773655",
    "claimThisBusiness": false,
    "location": {
      "lat": 53.2892216,
      "lng": -9.0208893
    },
    "totalScore": 4.9,
    "permanentlyClosed": false,
    "temporarilyClosed": false,
    "placeId": "ChIJBcxrrvuWW0gRozNJ_IGVrlE",
    "categories": [
      "Place of worship"
    ],
    "fid": "0x485b96fbae6bcc05:0x51ae9581fc4933a3",
    "cid": "5885806148535792547",
    "reviewsCount": 37,
    "imageCategories": [],
    "scrapedAt": "2025-11-22T11:42:20.903Z",
    "googleFoodUrl": null,
    "hotelAds": [],
    "openingHours": [],
    "peopleAlsoSearch": [],
    "placesTags": [],
    "reviewsTags": [],
    "additionalInfo": {
      "Accessibility": [
        {
          "Assisted listening devices": true
        },
        {
          "Wheelchair accessible entrance": true
        },
        {
          "Wheelchair accessible parking lot": true
        },
        {
          "Wheelchair accessible restroom": true
        },
        {
          "Wheelchair accessible seating": true
        }
      ],
      "Amenities": [
        {
          "Restroom": true
        }
      ],
      "Parking": [
        {
          "Free parking lot": true
        }
      ]
    },
    "gasPrices": [],
    "url": "https://www.google.com/maps/search/?api=1&query=Discovery%20Church%20Galway&query_place_id=ChIJBcxrrvuWW0gRozNJ_IGVrlE",
    "searchPageUrl": "https://www.google.com/maps/search/ALL_PLACES_NO_SEARCH/@53.304661890806955,-9.031607371042677,16z",
    "searchString": "ALL_PLACES_NO_SEARCH",
    "language": "en",
    "rank": 53,
    "isAdvertisement": false,
    "kgmid": "/g/11b7rxkl99"
  },
  {
    "title": "Cash Factory Furniture Galway",
    "price": null,
    "categoryName": "Furniture store",
    "address": "Riverside Industrial Estate, Tuam Rd, Galway, H91 C6RW, Ireland",
    "neighborhood": null,
    "street": "Riverside Industrial Estate, Tuam Rd",
    "city": "Galway",
    "postalCode": "H91 C6RW",
    "state": null,
    "countryCode": "IE",
    "website": "https://www.cashfactory.ie/",
    "phone": "+353 91 760 750",
    "phoneUnformatted": "+35391760750",
    "claimThisBusiness": false,
    "location": {
      "lat": 53.2886187,
      "lng": -9.02483
    },
    "totalScore": 4.4,
    "permanentlyClosed": false,
    "temporarilyClosed": false,
    "placeId": "ChIJKc5qSraWW0gR3R6HLrznRE4",
    "categories": [
      "Furniture store",
      "Store"
    ],
    "fid": "0x485b96b64a6ace29:0x4e44e7bc2e871edd",
    "cid": "5639887428795178717",
    "reviewsCount": 183,
    "imageCategories": [],
    "scrapedAt": "2025-11-22T11:42:20.903Z",
    "googleFoodUrl": null,
    "hotelAds": [],
    "openingHours": [
      {
        "day": "Monday",
        "hours": "9 AM to 6 PM"
      },
      {
        "day": "Tuesday",
        "hours": "9 AM to 6 PM"
      },
      {
        "day": "Wednesday",
        "hours": "9 AM to 6 PM"
      },
      {
        "day": "Thursday",
        "hours": "9 AM to 6 PM"
      },
      {
        "day": "Friday",
        "hours": "9 AM to 6 PM"
      },
      {
        "day": "Saturday",
        "hours": "9 AM to 6 PM"
      },
      {
        "day": "Sunday",
        "hours": "1 to 6 PM"
      }
    ],
    "peopleAlsoSearch": [],
    "placesTags": [],
    "reviewsTags": [],
    "additionalInfo": {
      "Service options": [
        {
          "Delivery": true
        },
        {
          "In-store pickup": true
        }
      ],
      "Accessibility": [
        {
          "Wheelchair accessible entrance": true
        },
        {
          "Wheelchair accessible parking lot": true
        }
      ],
      "Offerings": [
        {
          "Assembly service": true
        }
      ],
      "Planning": [
        {
          "Quick visit": true
        }
      ],
      "Payments": [
        {
          "Credit cards": true
        },
        {
          "Debit cards": true
        },
        {
          "NFC mobile payments": true
        },
        {
          "Credit cards": true
        }
      ]
    },
    "gasPrices": [],
    "url": "https://www.google.com/maps/search/?api=1&query=Cash%20Factory%20Furniture%20Galway&query_place_id=ChIJKc5qSraWW0gR3R6HLrznRE4",
    "searchPageUrl": "https://www.google.com/maps/search/ALL_PLACES_NO_SEARCH/@53.304661890806955,-9.031607371042677,16z",
    "searchString": "ALL_PLACES_NO_SEARCH",
    "language": "en",
    "rank": 54,
    "isAdvertisement": false,
    "kgmid": "/g/11b7jwrlfd"
  },
  {
    "title": "Cregal Art",
    "price": null,
    "categoryName": "Art supply store",
    "address": "Monivea Rd, Galway, H91 VP7V, Ireland",
    "neighborhood": null,
    "street": "Monivea Rd",
    "city": "Galway",
    "postalCode": "H91 VP7V",
    "state": null,
    "countryCode": "IE",
    "website": "https://www.cregalart.ie/",
    "phone": "+353 91 751 864",
    "phoneUnformatted": "+35391751864",
    "claimThisBusiness": false,
    "location": {
      "lat": 53.2883665,
      "lng": -9.0156405
    },
    "totalScore": 4.7,
    "permanentlyClosed": false,
    "temporarilyClosed": false,
    "placeId": "ChIJc2cK4UmRW0gRVelp4qFXwyw",
    "categories": [
      "Art supply store",
      "Educational supply store",
      "Picture frame shop"
    ],
    "fid": "0x485b9149e10a6773:0x2cc357a1e269e955",
    "cid": "3225518110927350101",
    "reviewsCount": 438,
    "imageCategories": [],
    "scrapedAt": "2025-11-22T11:42:20.903Z",
    "googleFoodUrl": null,
    "hotelAds": [],
    "openingHours": [
      {
        "day": "Monday",
        "hours": "9:30 AM to 5 PM"
      },
      {
        "day": "Tuesday",
        "hours": "9:30 AM to 5 PM"
      },
      {
        "day": "Wednesday",
        "hours": "9:30 AM to 5 PM"
      },
      {
        "day": "Thursday",
        "hours": "9:30 AM to 5 PM"
      },
      {
        "day": "Friday",
        "hours": "9:30 AM to 5 PM"
      },
      {
        "day": "Saturday",
        "hours": "9:30 AM to 4 PM"
      },
      {
        "day": "Sunday",
        "hours": "Closed"
      }
    ],
    "peopleAlsoSearch": [],
    "placesTags": [],
    "reviewsTags": [],
    "additionalInfo": {
      "Service options": [
        {
          "Delivery": true
        },
        {
          "In-store shopping": true
        },
        {
          "Onsite services": true
        }
      ],
      "Accessibility": [
        {
          "Wheelchair accessible entrance": true
        },
        {
          "Wheelchair accessible parking lot": true
        },
        {
          "Wheelchair accessible restroom": true
        }
      ],
      "Crowd": [
        {
          "LGBTQ+ friendly": true
        }
      ],
      "Planning": [
        {
          "Quick visit": true
        }
      ],
      "Payments": [
        {
          "Credit cards": true
        },
        {
          "Debit cards": true
        },
        {
          "NFC mobile payments": true
        }
      ]
    },
    "gasPrices": [],
    "url": "https://www.google.com/maps/search/?api=1&query=Cregal%20Art&query_place_id=ChIJc2cK4UmRW0gRVelp4qFXwyw",
    "searchPageUrl": "https://www.google.com/maps/search/ALL_PLACES_NO_SEARCH/@53.304661890806955,-9.031607371042677,16z",
    "searchString": "ALL_PLACES_NO_SEARCH",
    "language": "en",
    "rank": 57,
    "isAdvertisement": false,
    "kgmid": "/g/1tv3n2kg"
  },
  {
    "title": "McDonogh Trade Home DIY and Garden Centre",
    "price": null,
    "categoryName": "Building materials store",
    "address": "Ballybane Industrial Estate, Bóthar Na Mine, Galway, H91 VK37, Ireland",
    "neighborhood": null,
    "street": "Ballybane Industrial Estate, Bóthar Na Mine",
    "city": "Galway",
    "postalCode": "H91 VK37",
    "state": null,
    "countryCode": "IE",
    "website": "http://www.mcdonoghdirect.ie/",
    "phone": "+353 91 779 200",
    "phoneUnformatted": "+35391779200",
    "claimThisBusiness": false,
    "location": {
      "lat": 53.2912625,
      "lng": -9.015069
    },
    "totalScore": 4.4,
    "permanentlyClosed": false,
    "temporarilyClosed": false,
    "placeId": "ChIJhUmlLEuRW0gRc0u6YtNG5ts",
    "categories": [
      "Building materials store",
      "Bathroom supply store",
      "Fence supply store",
      "Garden center",
      "Hardware store",
      "Paint store",
      "Tool store"
    ],
    "fid": "0x485b914b2ca54985:0xdbe646d362ba4b73",
    "cid": "15845430212658088819",
    "reviewsCount": 520,
    "imageCategories": [],
    "scrapedAt": "2025-11-22T11:42:20.903Z",
    "googleFoodUrl": null,
    "hotelAds": [],
    "openingHours": [
      {
        "day": "Monday",
        "hours": "7:30 AM to 5:30 PM"
      },
      {
        "day": "Tuesday",
        "hours": "7:30 AM to 5:30 PM"
      },
      {
        "day": "Wednesday",
        "hours": "7:30 AM to 5:30 PM"
      },
      {
        "day": "Thursday",
        "hours": "7:30 AM to 5:30 PM"
      },
      {
        "day": "Friday",
        "hours": "7:30 AM to 5 PM"
      },
      {
        "day": "Saturday",
        "hours": "8 AM to 5 PM"
      },
      {
        "day": "Sunday",
        "hours": "Closed"
      }
    ],
    "peopleAlsoSearch": [],
    "placesTags": [],
    "reviewsTags": [],
    "additionalInfo": {
      "Service options": [
        {
          "Delivery": true
        },
        {
          "In-store pickup": true
        },
        {
          "In-store shopping": true
        }
      ],
      "Accessibility": [
        {
          "Wheelchair accessible entrance": true
        },
        {
          "Wheelchair accessible parking lot": true
        },
        {
          "Wheelchair accessible restroom": true
        }
      ],
      "Planning": [
        {
          "Quick visit": true
        }
      ],
      "Payments": [
        {
          "Credit cards": true
        },
        {
          "Debit cards": true
        },
        {
          "NFC mobile payments": true
        },
        {
          "Credit cards": true
        }
      ]
    },
    "gasPrices": [],
    "url": "https://www.google.com/maps/search/?api=1&query=McDonogh%20Trade%20Home%20DIY%20and%20Garden%20Centre&query_place_id=ChIJhUmlLEuRW0gRc0u6YtNG5ts",
    "searchPageUrl": "https://www.google.com/maps/search/ALL_PLACES_NO_SEARCH/@53.304661890806955,-9.031607371042677,16z",
    "searchString": "ALL_PLACES_NO_SEARCH",
    "language": "en",
    "rank": 58,
    "isAdvertisement": false,
    "kgmid": "/g/1th62ssl"
  },
  {
    "title": "CrossFit Limitless",
    "price": null,
    "categoryName": "Gym",
    "address": "Unit 25 Ballybane Industrial Estate, Ireland H91 W1KF, Galway, Ireland",
    "neighborhood": null,
    "street": "Unit 25 Ballybane Industrial Estate, Ireland H91 W1KF",
    "city": "Galway",
    "postalCode": null,
    "state": null,
    "countryCode": "IE",
    "website": "https://www.crossfitlimitless.ie/",
    "phone": "+353 89 602 8431",
    "phoneUnformatted": "+353896028431",
    "claimThisBusiness": false,
    "location": {
      "lat": 53.290895,
      "lng": -9.0169015
    },
    "totalScore": 4.9,
    "permanentlyClosed": false,
    "temporarilyClosed": false,
    "placeId": "ChIJYwrX4O6WW0gRc9llAVMe7Do",
    "categories": [
      "Gym"
    ],
    "fid": "0x485b96eee0d70a63:0x3aec1e530165d973",
    "cid": "4245801890558105971",
    "reviewsCount": 97,
    "imageCategories": [],
    "scrapedAt": "2025-11-22T11:42:20.903Z",
    "googleFoodUrl": null,
    "hotelAds": [],
    "openingHours": [
      {
        "day": "Monday",
        "hours": "6 AM to 8:30 PM"
      },
      {
        "day": "Tuesday",
        "hours": "6 AM to 8:30 PM"
      },
      {
        "day": "Wednesday",
        "hours": "6 AM to 8:30 PM"
      },
      {
        "day": "Thursday",
        "hours": "6 AM to 8:30 PM"
      },
      {
        "day": "Friday",
        "hours": "6 AM to 7:30 PM"
      },
      {
        "day": "Saturday",
        "hours": "8:30 AM to 1 PM"
      },
      {
        "day": "Sunday",
        "hours": "10 AM to 12 PM"
      }
    ],
    "peopleAlsoSearch": [],
    "placesTags": [],
    "reviewsTags": [],
    "additionalInfo": {
      "Service options": [
        {
          "Outdoor services": true
        },
        {
          "Onsite services": true
        },
        {
          "Online classes": false
        }
      ],
      "Accessibility": [
        {
          "Wheelchair accessible entrance": true
        },
        {
          "Wheelchair accessible parking lot": true
        }
      ],
      "Amenities": [
        {
          "Restroom": true
        },
        {
          "Wi-Fi": true
        },
        {
          "Free Wi-Fi": true
        }
      ],
      "Planning": [
        {
          "Membership required": true
        }
      ],
      "Payments": [
        {
          "Credit cards": true
        },
        {
          "Debit cards": true
        },
        {
          "NFC mobile payments": true
        },
        {
          "Credit cards": true
        }
      ]
    },
    "gasPrices": [],
    "url": "https://www.google.com/maps/search/?api=1&query=CrossFit%20Limitless&query_place_id=ChIJYwrX4O6WW0gRc9llAVMe7Do",
    "searchPageUrl": "https://www.google.com/maps/search/ALL_PLACES_NO_SEARCH/@53.304661890806955,-9.031607371042677,16z",
    "searchString": "ALL_PLACES_NO_SEARCH",
    "language": "en",
    "rank": 59,
    "isAdvertisement": false,
    "kgmid": "/g/11b6gl555x"
  },
  {
    "title": "Warehouse Gym",
    "price": null,
    "categoryName": "Gym",
    "address": "Monivea Rd, Galway, Ireland",
    "neighborhood": null,
    "street": "Monivea Rd",
    "city": "Galway",
    "postalCode": null,
    "state": null,
    "countryCode": "IE",
    "website": "http://www.warehousegym.ie/",
    "phone": "+353 83 013 1925",
    "phoneUnformatted": "+353830131925",
    "claimThisBusiness": false,
    "location": {
      "lat": 53.2891447,
      "lng": -9.0156522
    },
    "totalScore": 4.6,
    "permanentlyClosed": false,
    "temporarilyClosed": false,
    "placeId": "ChIJJYvzQLWWW0gROG3_E5KeLaU",
    "categories": [
      "Gym"
    ],
    "fid": "0x485b96b540f38b25:0xa52d9e9213ff6d38",
    "cid": "11902343740448009528",
    "reviewsCount": 207,
    "imageCategories": [],
    "scrapedAt": "2025-11-22T11:42:20.903Z",
    "googleFoodUrl": null,
    "hotelAds": [],
    "openingHours": [
      {
        "day": "Monday",
        "hours": "5:30 AM to 11 PM"
      },
      {
        "day": "Tuesday",
        "hours": "5:30 AM to 11 PM"
      },
      {
        "day": "Wednesday",
        "hours": "5:30 AM to 11 PM"
      },
      {
        "day": "Thursday",
        "hours": "5:30 AM to 11 PM"
      },
      {
        "day": "Friday",
        "hours": "5:30 AM to 11 PM"
      },
      {
        "day": "Saturday",
        "hours": "8 AM to 9 PM"
      },
      {
        "day": "Sunday",
        "hours": "8 AM to 9 PM"
      }
    ],
    "peopleAlsoSearch": [],
    "placesTags": [],
    "reviewsTags": [],
    "additionalInfo": {
      "Service options": [
        {
          "Online classes": false
        }
      ],
      "Accessibility": [
        {
          "Wheelchair accessible entrance": true
        },
        {
          "Wheelchair accessible parking lot": true
        },
        {
          "Wheelchair accessible restroom": true
        }
      ],
      "Amenities": [
        {
          "Restroom": true
        }
      ],
      "Payments": [
        {
          "Credit cards": true
        },
        {
          "Debit cards": true
        },
        {
          "NFC mobile payments": true
        }
      ]
    },
    "gasPrices": [],
    "url": "https://www.google.com/maps/search/?api=1&query=Warehouse%20Gym&query_place_id=ChIJJYvzQLWWW0gROG3_E5KeLaU",
    "searchPageUrl": "https://www.google.com/maps/search/ALL_PLACES_NO_SEARCH/@53.304661890806955,-9.031607371042677,16z",
    "searchString": "ALL_PLACES_NO_SEARCH",
    "language": "en",
    "rank": 60,
    "isAdvertisement": false,
    "kgmid": "/g/12hm5mvll"
  },
  {
    "title": "Wedding Cars Galway",
    "price": null,
    "categoryName": "Wedding service",
    "address": "99 Gleann Rua, Renmore, Galway, H91 HEF2, Ireland",
    "neighborhood": "Renmore",
    "street": "99 Gleann Rua",
    "city": "Galway",
    "postalCode": "H91 HEF2",
    "state": null,
    "countryCode": "IE",
    "website": "http://www.weddingcarsgalway.ie/",
    "phone": "+353 86 819 4066",
    "phoneUnformatted": "+353868194066",
    "claimThisBusiness": false,
    "location": {
      "lat": 53.272001,
      "lng": -9.0095459
    },
    "totalScore": 4.5,
    "permanentlyClosed": false,
    "temporarilyClosed": false,
    "placeId": "ChIJFTb4V9OWW0gR_m48EqGDWzE",
    "categories": [
      "Wedding service",
      "Limousine service"
    ],
    "fid": "0x485b96d357f83615:0x315b83a1123c6efe",
    "cid": "3556581058558062334",
    "reviewsCount": 16,
    "imageCategories": [],
    "scrapedAt": "2025-11-22T11:42:21.071Z",
    "googleFoodUrl": null,
    "hotelAds": [],
    "openingHours": [
      {
        "day": "Monday",
        "hours": "9 AM to 9 PM"
      },
      {
        "day": "Tuesday",
        "hours": "9 AM to 9 PM"
      },
      {
        "day": "Wednesday",
        "hours": "9 AM to 9 PM"
      },
      {
        "day": "Thursday",
        "hours": "9 AM to 9 PM"
      },
      {
        "day": "Friday",
        "hours": "9 AM to 9 PM"
      },
      {
        "day": "Saturday",
        "hours": "9 AM to 9 PM"
      },
      {
        "day": "Sunday",
        "hours": "1 to 5 PM"
      }
    ],
    "peopleAlsoSearch": [],
    "placesTags": [],
    "reviewsTags": [],
    "additionalInfo": {
      "Accessibility": [
        {
          "Wheelchair accessible parking lot": true
        }
      ]
    },
    "gasPrices": [],
    "url": "https://www.google.com/maps/search/?api=1&query=Wedding%20Cars%20Galway&query_place_id=ChIJFTb4V9OWW0gR_m48EqGDWzE",
    "searchPageUrl": "https://www.google.com/maps/search/ALL_PLACES_NO_SEARCH/@53.27386495459652,-9.01445064208535,16z",
    "searchString": "ALL_PLACES_NO_SEARCH",
    "language": "en",
    "rank": 7,
    "isAdvertisement": false,
    "kgmid": "/g/11c54d4r_6"
  },
  {
    "title": "Gleann na Rí",
    "price": null,
    "categoryName": "Apartment building",
    "address": "Apartment 155, Tí Dháithí, 165 Gleann na Rí, Murrough, Galway, H91 K592, Ireland",
    "neighborhood": "Murrough",
    "street": "Apartment 155, Tí Dháithí, 165 Gleann na Rí",
    "city": "Galway",
    "postalCode": "H91 K592",
    "state": null,
    "countryCode": "IE",
    "claimThisBusiness": true,
    "location": {
      "lat": 53.2726542,
      "lng": -9.0034554
    },
    "totalScore": 4,
    "permanentlyClosed": false,
    "temporarilyClosed": false,
    "placeId": "ChIJ3xASWkSRW0gRF-bG_LBy3ss",
    "categories": [
      "Apartment building"
    ],
    "fid": "0x485b91445a1210df:0xcbde72b0fcc6e617",
    "cid": "14690305139009840663",
    "reviewsCount": 1,
    "imageCategories": [],
    "scrapedAt": "2025-11-22T11:42:21.071Z",
    "googleFoodUrl": null,
    "hotelAds": [],
    "openingHours": [],
    "peopleAlsoSearch": [],
    "placesTags": [],
    "reviewsTags": [],
    "additionalInfo": {
      "Accessibility": [
        {
          "Wheelchair accessible entrance": true
        },
        {
          "Wheelchair accessible parking lot": true
        }
      ]
    },
    "gasPrices": [],
    "url": "https://www.google.com/maps/search/?api=1&query=Gleann%20na%20R%C3%AD&query_place_id=ChIJ3xASWkSRW0gRF-bG_LBy3ss",
    "searchPageUrl": "https://www.google.com/maps/search/ALL_PLACES_NO_SEARCH/@53.27386495459652,-9.01445064208535,16z",
    "searchString": "ALL_PLACES_NO_SEARCH",
    "language": "en",
    "rank": 10,
    "isAdvertisement": false,
    "kgmid": "/g/11s7w_32qf"
  },
  {
    "title": "Anthony John Windows & Doors",
    "price": null,
    "categoryName": "Window installation service",
    "address": "Apartment 184, 183 Gleann na Rí, Murrough, Galway, H91 W960, Ireland",
    "neighborhood": "Murrough",
    "street": "Apartment 184, 183 Gleann na Rí",
    "city": "Galway",
    "postalCode": "H91 W960",
    "state": null,
    "countryCode": "IE",
    "website": "https://anthonyjohnwindows.ie/",
    "phone": "+353 85 735 3747",
    "phoneUnformatted": "+353857353747",
    "claimThisBusiness": false,
    "location": {
      "lat": 53.2729195,
      "lng": -9.0043477
    },
    "totalScore": 5,
    "permanentlyClosed": false,
    "temporarilyClosed": false,
    "placeId": "ChIJ2b4fHbWRW0gRnjxjuQhcb7A",
    "categories": [
      "Window installation service"
    ],
    "fid": "0x485b91b51d1fbed9:0xb06f5c08b9633c9e",
    "cid": "12713481465629981854",
    "reviewsCount": 8,
    "imageCategories": [],
    "scrapedAt": "2025-11-22T11:42:21.071Z",
    "googleFoodUrl": null,
    "hotelAds": [],
    "openingHours": [
      {
        "day": "Monday",
        "hours": "9 AM to 9:30 PM"
      },
      {
        "day": "Tuesday",
        "hours": "9 AM to 9:30 PM"
      },
      {
        "day": "Wednesday",
        "hours": "9 AM to 9:30 PM"
      },
      {
        "day": "Thursday",
        "hours": "9 AM to 9:30 PM"
      },
      {
        "day": "Friday",
        "hours": "9 AM to 9:30 PM"
      },
      {
        "day": "Saturday",
        "hours": "9 AM to 9:30 PM"
      },
      {
        "day": "Sunday",
        "hours": "9:30 AM to 9:30 PM"
      }
    ],
    "peopleAlsoSearch": [],
    "placesTags": [],
    "reviewsTags": [],
    "additionalInfo": {
      "Accessibility": [
        {
          "Wheelchair accessible parking lot": true
        }
      ]
    },
    "gasPrices": [],
    "url": "https://www.google.com/maps/search/?api=1&query=Anthony%20John%20Windows%20%26%20Doors&query_place_id=ChIJ2b4fHbWRW0gRnjxjuQhcb7A",
    "searchPageUrl": "https://www.google.com/maps/search/ALL_PLACES_NO_SEARCH/@53.27386495459652,-9.01445064208535,16z",
    "searchString": "ALL_PLACES_NO_SEARCH",
    "language": "en",
    "rank": 12,
    "isAdvertisement": false,
    "kgmid": "/g/11spgtmcv8"
  },
  {
    "title": "Ruger Outdoors",
    "price": null,
    "categoryName": "Outdoor clothing and equipment shop",
    "address": "42 Gleann Rua, Galway, H91 ERP0, Ireland",
    "neighborhood": null,
    "street": "42 Gleann Rua",
    "city": "Galway",
    "postalCode": "H91 ERP0",
    "state": null,
    "countryCode": "IE",
    "phone": "+353 85 811 7924",
    "phoneUnformatted": "+353858117924",
    "claimThisBusiness": false,
    "location": {
      "lat": 53.271901,
      "lng": -9.006784
    },
    "totalScore": 5,
    "permanentlyClosed": false,
    "temporarilyClosed": false,
    "placeId": "ChIJp4i1LHiRW0gReBgQMFU3j7o",
    "categories": [
      "Outdoor clothing and equipment shop"
    ],
    "fid": "0x485b91782cb588a7:0xba8f375530101878",
    "cid": "13443024251742328952",
    "reviewsCount": 1,
    "imageCategories": [],
    "scrapedAt": "2025-11-22T11:42:21.071Z",
    "googleFoodUrl": null,
    "hotelAds": [],
    "openingHours": [
      {
        "day": "Monday",
        "hours": "Open 24 hours"
      },
      {
        "day": "Tuesday",
        "hours": "Open 24 hours"
      },
      {
        "day": "Wednesday",
        "hours": "Open 24 hours"
      },
      {
        "day": "Thursday",
        "hours": "Open 24 hours"
      },
      {
        "day": "Friday",
        "hours": "Open 24 hours"
      },
      {
        "day": "Saturday",
        "hours": "Open 24 hours"
      },
      {
        "day": "Sunday",
        "hours": "Open 24 hours"
      }
    ],
    "peopleAlsoSearch": [],
    "placesTags": [],
    "reviewsTags": [],
    "additionalInfo": {
      "Accessibility": [
        {
          "Wheelchair accessible entrance": true
        },
        {
          "Wheelchair accessible parking lot": true
        }
      ],
      "Planning": [
        {
          "Quick visit": true
        }
      ],
      "Payments": [
        {
          "Credit cards": true
        },
        {
          "Debit cards": true
        },
        {
          "NFC mobile payments": true
        }
      ]
    },
    "gasPrices": [],
    "url": "https://www.google.com/maps/search/?api=1&query=Ruger%20Outdoors&query_place_id=ChIJp4i1LHiRW0gReBgQMFU3j7o",
    "searchPageUrl": "https://www.google.com/maps/search/ALL_PLACES_NO_SEARCH/@53.27386495459652,-9.01445064208535,16z",
    "searchString": "ALL_PLACES_NO_SEARCH",
    "language": "en",
    "rank": 13,
    "isAdvertisement": false,
    "kgmid": "/g/11vdy689r9"
  },
  {
    "title": "Eddie’s Takeaway & Diner",
    "price": "$",
    "categoryName": "Family restaurant",
    "address": "Merlin Park, Gleann na Rí, Galway, H91 RC63, Ireland",
    "neighborhood": null,
    "street": "Merlin Park, Gleann na Rí",
    "city": "Galway",
    "postalCode": "H91 RC63",
    "state": null,
    "countryCode": "IE",
    "website": "https://eddiesgalway.ie/?utm_source=GMBwebsite&utm_medium=organic&utm_campaign=Google%20My%20Business",
    "phone": "+353 91 768 441",
    "phoneUnformatted": "+35391768441",
    "claimThisBusiness": false,
    "location": {
      "lat": 53.2744041,
      "lng": -8.9992295
    },
    "totalScore": 4.1,
    "permanentlyClosed": false,
    "temporarilyClosed": false,
    "placeId": "ChIJWVicri6RW0gRm2oq0OmEy54",
    "categories": [
      "Family restaurant",
      "Fast food restaurant",
      "Fish and chips takeaway",
      "Pizza restaurant"
    ],
    "fid": "0x485b912eae9c5859:0x9ecb84e9d02a6a9b",
    "cid": "11442385418019564187",
    "reviewsCount": 611,
    "imageCategories": [],
    "scrapedAt": "2025-11-22T11:42:21.073Z",
    "googleFoodUrl": null,
    "hotelAds": [],
    "openingHours": [
      {
        "day": "Monday",
        "hours": "3 to 11 PM"
      },
      {
        "day": "Tuesday",
        "hours": "3 to 11 PM"
      },
      {
        "day": "Wednesday",
        "hours": "3 to 11 PM"
      },
      {
        "day": "Thursday",
        "hours": "3 to 11 PM"
      },
      {
        "day": "Friday",
        "hours": "1 to 11:30 PM"
      },
      {
        "day": "Saturday",
        "hours": "1 to 11:30 PM"
      },
      {
        "day": "Sunday",
        "hours": "1 to 11:30 PM"
      }
    ],
    "peopleAlsoSearch": [],
    "placesTags": [],
    "reviewsTags": [],
    "additionalInfo": {
      "Service options": [
        {
          "No-contact delivery": true
        },
        {
          "Delivery": true
        },
        {
          "Takeout": true
        },
        {
          "Dine-in": true
        }
      ],
      "Highlights": [
        {
          "Great coffee": true
        },
        {
          "Great dessert": true
        }
      ],
      "Popular for": [
        {
          "Breakfast": true
        },
        {
          "Lunch": true
        },
        {
          "Dinner": true
        },
        {
          "Solo dining": true
        }
      ],
      "Accessibility": [
        {
          "Wheelchair accessible entrance": true
        },
        {
          "Wheelchair accessible parking lot": true
        },
        {
          "Wheelchair accessible restroom": true
        },
        {
          "Wheelchair accessible seating": true
        }
      ],
      "Offerings": [
        {
          "Coffee": true
        },
        {
          "Late-night food": true
        },
        {
          "Quick bite": true
        },
        {
          "Small plates": true
        },
        {
          "Vegetarian options": true
        }
      ],
      "Dining options": [
        {
          "Breakfast": true
        },
        {
          "Brunch": true
        },
        {
          "Lunch": true
        },
        {
          "Dinner": true
        },
        {
          "Catering": true
        },
        {
          "Dessert": true
        },
        {
          "Seating": true
        },
        {
          "Table service": true
        }
      ],
      "Amenities": [
        {
          "Restroom": true
        }
      ],
      "Atmosphere": [
        {
          "Casual": true
        }
      ],
      "Crowd": [
        {
          "College students": true
        },
        {
          "Groups": true
        },
        {
          "Tourists": true
        }
      ],
      "Planning": [
        {
          "Accepts reservations": true
        }
      ],
      "Payments": [
        {
          "Credit cards": true
        },
        {
          "Debit cards": true
        },
        {
          "NFC mobile payments": true
        },
        {
          "Credit cards": true
        }
      ],
      "Children": [
        {
          "Good for kids": true
        },
        {
          "Good for kids birthday": true
        },
        {
          "High chairs": true
        },
        {
          "Kids' menu": true
        }
      ],
      "Parking": [
        {
          "Free parking lot": true
        },
        {
          "Free street parking": true
        },
        {
          "Usually plenty of parking": true
        }
      ]
    },
    "gasPrices": [],
    "url": "https://www.google.com/maps/search/?api=1&query=Eddie%E2%80%99s%20Takeaway%20%26%20Diner&query_place_id=ChIJWVicri6RW0gRm2oq0OmEy54",
    "searchPageUrl": "https://www.google.com/maps/search/ALL_PLACES_NO_SEARCH/@53.27386495459652,-9.01445064208535,16z",
    "searchString": "ALL_PLACES_NO_SEARCH",
    "language": "en",
    "rank": 14,
    "isAdvertisement": false,
    "kgmid": "/g/1tffyxpv"
  },
  {
    "title": "CORE Therapy Galway",
    "price": null,
    "categoryName": "Sports massage therapist",
    "address": "21 Gleann na Rí, Galway, H91 YN82, Ireland",
    "neighborhood": null,
    "street": "21 Gleann na Rí",
    "city": "Galway",
    "postalCode": "H91 YN82",
    "state": null,
    "countryCode": "IE",
    "website": "https://www.coretherapygalway.com/",
    "phone": "+353 83 808 0430",
    "phoneUnformatted": "+353838080430",
    "claimThisBusiness": false,
    "location": {
      "lat": 53.2733506,
      "lng": -9.0015685
    },
    "totalScore": 5,
    "permanentlyClosed": false,
    "temporarilyClosed": false,
    "placeId": "ChIJRVU-azyRW0gREZ0S1psqFBU",
    "categories": [
      "Sports massage therapist"
    ],
    "fid": "0x485b913c6b3e5545:0x15142a9bd6129d11",
    "cid": "1518885823130541329",
    "reviewsCount": 41,
    "imageCategories": [],
    "scrapedAt": "2025-11-22T11:42:21.073Z",
    "googleFoodUrl": null,
    "hotelAds": [],
    "openingHours": [
      {
        "day": "Monday",
        "hours": "10 AM to 8 PM"
      },
      {
        "day": "Tuesday",
        "hours": "10 AM to 8 PM"
      },
      {
        "day": "Wednesday",
        "hours": "10 AM to 8 PM"
      },
      {
        "day": "Thursday",
        "hours": "10 AM to 8 PM"
      },
      {
        "day": "Friday",
        "hours": "10 AM to 8 PM"
      },
      {
        "day": "Saturday",
        "hours": "10 AM to 8 PM"
      },
      {
        "day": "Sunday",
        "hours": "10 AM to 8 PM"
      }
    ],
    "peopleAlsoSearch": [],
    "placesTags": [],
    "reviewsTags": [],
    "additionalInfo": {
      "Parking": [
        {
          "Free parking lot": true
        },
        {
          "On-site parking": true
        }
      ]
    },
    "gasPrices": [],
    "url": "https://www.google.com/maps/search/?api=1&query=CORE%20Therapy%20Galway&query_place_id=ChIJRVU-azyRW0gREZ0S1psqFBU",
    "searchPageUrl": "https://www.google.com/maps/search/ALL_PLACES_NO_SEARCH/@53.27386495459652,-9.01445064208535,16z",
    "searchString": "ALL_PLACES_NO_SEARCH",
    "language": "en",
    "rank": 16,
    "isAdvertisement": false,
    "kgmid": "/g/11xnvm_9wm"
  },
  {
    "title": "Galway Irish Crystal",
    "price": null,
    "categoryName": "Gift shop",
    "address": "Old Dublin Rd, Galway, H91 NN56, Ireland",
    "neighborhood": null,
    "street": "Old Dublin Rd",
    "city": "Galway",
    "postalCode": "H91 NN56",
    "state": null,
    "countryCode": "IE",
    "website": "http://www.galwaycrystal.ie/",
    "phone": "+353 91 757 311",
    "phoneUnformatted": "+35391757311",
    "claimThisBusiness": false,
    "location": {
      "lat": 53.2740091,
      "lng": -8.9974407
    },
    "totalScore": 4.5,
    "permanentlyClosed": false,
    "temporarilyClosed": false,
    "placeId": "ChIJITsuXOWWW0gRIeWjz_izrpk",
    "categories": [
      "Gift shop"
    ],
    "fid": "0x485b96e55c2e3b21:0x99aeb3f8cfa3e521",
    "cid": "11073986414967514401",
    "reviewsCount": 716,
    "imageCategories": [],
    "scrapedAt": "2025-11-22T11:42:21.073Z",
    "googleFoodUrl": null,
    "hotelAds": [],
    "openingHours": [
      {
        "day": "Monday",
        "hours": "9 AM to 5:30 PM"
      },
      {
        "day": "Tuesday",
        "hours": "9 AM to 5:30 PM"
      },
      {
        "day": "Wednesday",
        "hours": "9 AM to 5:30 PM"
      },
      {
        "day": "Thursday",
        "hours": "9 AM to 5:30 PM"
      },
      {
        "day": "Friday",
        "hours": "9 AM to 5:30 PM"
      },
      {
        "day": "Saturday",
        "hours": "9:30 AM to 5:30 PM"
      },
      {
        "day": "Sunday",
        "hours": "10 AM to 5 PM"
      }
    ],
    "peopleAlsoSearch": [],
    "placesTags": [],
    "reviewsTags": [],
    "additionalInfo": {
      "Service options": [
        {
          "In-store pickup": true
        },
        {
          "In-store shopping": true
        },
        {
          "Onsite services": true
        }
      ],
      "Accessibility": [
        {
          "Wheelchair accessible entrance": true
        },
        {
          "Wheelchair accessible parking lot": true
        },
        {
          "Wheelchair accessible restroom": true
        },
        {
          "Wheelchair accessible seating": true
        }
      ],
      "Crowd": [
        {
          "LGBTQ+ friendly": true
        }
      ],
      "Planning": [
        {
          "Quick visit": true
        }
      ],
      "Payments": [
        {
          "Credit cards": true
        },
        {
          "Debit cards": true
        },
        {
          "NFC mobile payments": true
        },
        {
          "Credit cards": true
        }
      ],
      "Parking": [
        {
          "Free parking lot": true
        }
      ]
    },
    "gasPrices": [],
    "url": "https://www.google.com/maps/search/?api=1&query=Galway%20Irish%20Crystal&query_place_id=ChIJITsuXOWWW0gRIeWjz_izrpk",
    "searchPageUrl": "https://www.google.com/maps/search/ALL_PLACES_NO_SEARCH/@53.27386495459652,-9.01445064208535,16z",
    "searchString": "ALL_PLACES_NO_SEARCH",
    "language": "en",
    "rank": 17,
    "isAdvertisement": false,
    "kgmid": "/g/12hvpbr7j"
  },
  {
    "title": "Ballyloughane Beach",
    "description": "Tranquil, undeveloped sandy stretch, a destination for observing local sea life at low tide.",
    "price": null,
    "categoryName": "Beach pavillion",
    "address": "Ballyloughane Beach, Renmore, Galway, Ireland",
    "neighborhood": null,
    "street": "Ballyloughane Beach, Renmore",
    "city": "Galway",
    "postalCode": null,
    "state": null,
    "countryCode": "IE",
    "phone": "+353 91 755 338",
    "phoneUnformatted": "+35391755338",
    "claimThisBusiness": true,
    "location": {
      "lat": 53.269757,
      "lng": -9.0171462
    },
    "totalScore": 4.5,
    "permanentlyClosed": false,
    "temporarilyClosed": false,
    "placeId": "ChIJK613juWWW0gR5ZAmztMHda0",
    "categories": [
      "Beach pavillion"
    ],
    "fid": "0x485b96e58e77ad2b:0xad7507d3ce2690e5",
    "cid": "12498904947114807525",
    "reviewsCount": 630,
    "imageCategories": [],
    "scrapedAt": "2025-11-22T11:42:21.073Z",
    "googleFoodUrl": null,
    "hotelAds": [],
    "openingHours": [
      {
        "day": "Monday",
        "hours": "Open 24 hours"
      },
      {
        "day": "Tuesday",
        "hours": "Open 24 hours"
      },
      {
        "day": "Wednesday",
        "hours": "Open 24 hours"
      },
      {
        "day": "Thursday",
        "hours": "Open 24 hours"
      },
      {
        "day": "Friday",
        "hours": "Open 24 hours"
      },
      {
        "day": "Saturday",
        "hours": "Open 24 hours"
      },
      {
        "day": "Sunday",
        "hours": "Open 24 hours"
      }
    ],
    "peopleAlsoSearch": [],
    "placesTags": [],
    "reviewsTags": [],
    "additionalInfo": {
      "Accessibility": [
        {
          "Wheelchair accessible entrance": true
        },
        {
          "Wheelchair accessible parking lot": true
        }
      ]
    },
    "gasPrices": [],
    "url": "https://www.google.com/maps/search/?api=1&query=Ballyloughane%20Beach&query_place_id=ChIJK613juWWW0gR5ZAmztMHda0",
    "searchPageUrl": "https://www.google.com/maps/search/ALL_PLACES_NO_SEARCH/@53.27386495459652,-9.01445064208535,16z",
    "searchString": "ALL_PLACES_NO_SEARCH",
    "language": "en",
    "rank": 19,
    "isAdvertisement": false,
    "kgmid": "/g/1q62bqn9s"
  },
  {
    "title": "Ballyloughane car park",
    "price": null,
    "categoryName": "Parking lot",
    "address": "7XCM+3R, Galway, Ireland",
    "neighborhood": null,
    "street": "7XCM+3R",
    "city": "Galway",
    "postalCode": null,
    "state": null,
    "countryCode": "IE",
    "claimThisBusiness": true,
    "location": {
      "lat": 53.2702171,
      "lng": -9.0154845
    },
    "totalScore": 5,
    "permanentlyClosed": false,
    "temporarilyClosed": false,
    "placeId": "ChIJJbQL6xiXW0gR21MxggGQGPI",
    "categories": [
      "Parking lot"
    ],
    "fid": "0x485b9718eb0bb425:0xf2189001823153db",
    "cid": "17444851492773254107",
    "reviewsCount": 1,
    "imageCategories": [],
    "scrapedAt": "2025-11-22T11:42:21.073Z",
    "googleFoodUrl": null,
    "hotelAds": [],
    "openingHours": [],
    "peopleAlsoSearch": [],
    "placesTags": [],
    "reviewsTags": [],
    "additionalInfo": {
      "Accessibility": [
        {
          "Wheelchair accessible entrance": true
        },
        {
          "Wheelchair accessible parking lot": true
        }
      ]
    },
    "gasPrices": [],
    "url": "https://www.google.com/maps/search/?api=1&query=Ballyloughane%20car%20park&query_place_id=ChIJJbQL6xiXW0gR21MxggGQGPI",
    "searchPageUrl": "https://www.google.com/maps/search/ALL_PLACES_NO_SEARCH/@53.27386495459652,-9.01445064208535,16z",
    "searchString": "ALL_PLACES_NO_SEARCH",
    "language": "en",
    "rank": 20,
    "isAdvertisement": false,
    "kgmid": "/g/11krkw4zcq"
  },
  {
    "title": "Outback Jacks",
    "price": null,
    "categoryName": "Outdoor sports store",
    "address": "Ballybane Industrial Estate, Ballybane, Whitegate, Co. Galway, H91 VFA3, Ireland",
    "neighborhood": "Ballybane",
    "street": "Ballybane Industrial Estate",
    "city": "Whitegate",
    "postalCode": "H91 VFA3",
    "state": "Co. Galway",
    "countryCode": "IE",
    "website": "http://www.outbackjacks.ie/",
    "phone": "+353 91 761 841",
    "phoneUnformatted": "+35391761841",
    "claimThisBusiness": false,
    "location": {
      "lat": 53.2894762,
      "lng": -9.0138537
    },
    "totalScore": 4.4,
    "permanentlyClosed": false,
    "temporarilyClosed": false,
    "placeId": "ChIJd-IytkqRW0gRTUctCbx7uAk",
    "categories": [
      "Outdoor sports store",
      "Awning supplier",
      "Camping store",
      "Clothing store",
      "Clothing supplier",
      "Corporate gift supplier",
      "Embroidery service",
      "Outdoor clothing and equipment shop",
      "Safety equipment supplier"
    ],
    "fid": "0x485b914ab632e277:0x9b87bbc092d474d",
    "cid": "700445789594142541",
    "reviewsCount": 206,
    "imageCategories": [],
    "scrapedAt": "2025-11-22T11:42:21.432Z",
    "googleFoodUrl": null,
    "hotelAds": [],
    "openingHours": [
      {
        "day": "Monday",
        "hours": "9:30 AM to 5:30 PM"
      },
      {
        "day": "Tuesday",
        "hours": "9:30 AM to 5:30 PM"
      },
      {
        "day": "Wednesday",
        "hours": "9:30 AM to 5:30 PM"
      },
      {
        "day": "Thursday",
        "hours": "9:30 AM to 5:30 PM"
      },
      {
        "day": "Friday",
        "hours": "9:30 AM to 5:30 PM"
      },
      {
        "day": "Saturday",
        "hours": "9:30 AM to 5:30 PM"
      },
      {
        "day": "Sunday",
        "hours": "Closed"
      }
    ],
    "peopleAlsoSearch": [],
    "placesTags": [],
    "reviewsTags": [],
    "additionalInfo": {
      "Service options": [
        {
          "Delivery": true
        },
        {
          "In-store pickup": true
        },
        {
          "Onsite services": true
        }
      ],
      "Accessibility": [
        {
          "Wheelchair accessible entrance": true
        },
        {
          "Wheelchair accessible parking lot": true
        }
      ],
      "Planning": [
        {
          "Quick visit": true
        }
      ],
      "Payments": [
        {
          "Checks": true
        },
        {
          "Credit cards": true
        },
        {
          "Debit cards": true
        },
        {
          "NFC mobile payments": true
        },
        {
          "Credit cards": true
        }
      ],
      "Parking": [
        {
          "Free parking lot": true
        },
        {
          "On-site parking": true
        }
      ]
    },
    "gasPrices": [],
    "url": "https://www.google.com/maps/search/?api=1&query=Outback%20Jacks&query_place_id=ChIJd-IytkqRW0gRTUctCbx7uAk",
    "searchPageUrl": "https://www.google.com/maps/search/ALL_PLACES_NO_SEARCH/@53.304661890806955,-9.031607371042677,16z",
    "searchString": "ALL_PLACES_NO_SEARCH",
    "language": "en",
    "rank": 62,
    "isAdvertisement": false,
    "kgmid": "/g/11bbyh733k"
  },
  {
    "title": "Prolink",
    "price": null,
    "categoryName": "Mover",
    "address": "Block 1, Ballybrit Business Park, Galway, Ireland",
    "neighborhood": "Ballybrit Business Park",
    "street": "Block 1",
    "city": "Galway",
    "postalCode": null,
    "state": null,
    "countryCode": "IE",
    "website": "http://www.prolink.ie/",
    "phone": "+353 91 779 636",
    "phoneUnformatted": "+35391779636",
    "claimThisBusiness": false,
    "location": {
      "lat": 53.2904898,
      "lng": -9.0095835
    },
    "totalScore": 4.5,
    "permanentlyClosed": false,
    "temporarilyClosed": false,
    "placeId": "ChIJs0uq3_CWW0gRmpZFpG1WAXk",
    "categories": [
      "Mover"
    ],
    "fid": "0x485b96f0dfaa4bb3:0x7901566da445969a",
    "cid": "8719345382473438874",
    "reviewsCount": 55,
    "imageCategories": [],
    "scrapedAt": "2025-11-22T11:42:21.432Z",
    "googleFoodUrl": null,
    "hotelAds": [],
    "openingHours": [
      {
        "day": "Monday",
        "hours": "8 AM to 5 PM"
      },
      {
        "day": "Tuesday",
        "hours": "8 AM to 5 PM"
      },
      {
        "day": "Wednesday",
        "hours": "8 AM to 5 PM"
      },
      {
        "day": "Thursday",
        "hours": "8 AM to 5 PM"
      },
      {
        "day": "Friday",
        "hours": "8 AM to 5 PM"
      },
      {
        "day": "Saturday",
        "hours": "Closed"
      },
      {
        "day": "Sunday",
        "hours": "Closed"
      }
    ],
    "peopleAlsoSearch": [],
    "placesTags": [],
    "reviewsTags": [],
    "gasPrices": [],
    "url": "https://www.google.com/maps/search/?api=1&query=Prolink&query_place_id=ChIJs0uq3_CWW0gRmpZFpG1WAXk",
    "searchPageUrl": "https://www.google.com/maps/search/ALL_PLACES_NO_SEARCH/@53.304661890806955,-9.031607371042677,16z",
    "searchString": "ALL_PLACES_NO_SEARCH",
    "language": "en",
    "rank": 65,
    "isAdvertisement": false,
    "kgmid": "/g/119wmpsfz"
  },
  {
    "title": "WIP",
    "price": null,
    "categoryName": "Trailer supply store",
    "address": "Ballybrit Industrial Estate, Ballybrit, Galway, Ireland",
    "neighborhood": null,
    "street": "Ballybrit Industrial Estate, Ballybrit",
    "city": "Galway",
    "postalCode": null,
    "state": null,
    "countryCode": "IE",
    "phone": "+353 91 755 748",
    "phoneUnformatted": "+35391755748",
    "claimThisBusiness": false,
    "location": {
      "lat": 53.290495,
      "lng": -9.01056
    },
    "totalScore": 5,
    "permanentlyClosed": false,
    "temporarilyClosed": false,
    "placeId": "ChIJkdwO2mmRW0gRi-ksrpOK5ls",
    "categories": [
      "Trailer supply store",
      "Horse trailer dealer",
      "Hydraulic repair service",
      "Industrial equipment supplier",
      "Utility trailer dealer"
    ],
    "fid": "0x485b9169da0edc91:0x5be68a93ae2ce98b",
    "cid": "6622132668981897611",
    "reviewsCount": 18,
    "imageCategories": [],
    "scrapedAt": "2025-11-22T11:42:21.432Z",
    "googleFoodUrl": null,
    "hotelAds": [],
    "openingHours": [
      {
        "day": "Monday",
        "hours": "9 AM to 6 PM"
      },
      {
        "day": "Tuesday",
        "hours": "9 AM to 6 PM"
      },
      {
        "day": "Wednesday",
        "hours": "9 AM to 6 PM"
      },
      {
        "day": "Thursday",
        "hours": "9 AM to 6 PM"
      },
      {
        "day": "Friday",
        "hours": "9 AM to 5 PM"
      },
      {
        "day": "Saturday",
        "hours": "Closed"
      },
      {
        "day": "Sunday",
        "hours": "Closed"
      }
    ],
    "peopleAlsoSearch": [],
    "placesTags": [],
    "reviewsTags": [],
    "additionalInfo": {
      "Service options": [
        {
          "Delivery": true
        },
        {
          "In-store pickup": true
        }
      ],
      "Accessibility": [
        {
          "Wheelchair accessible entrance": true
        },
        {
          "Wheelchair accessible parking lot": true
        }
      ],
      "Payments": [
        {
          "Credit cards": true
        },
        {
          "Debit cards": true
        },
        {
          "NFC mobile payments": true
        }
      ]
    },
    "gasPrices": [],
    "url": "https://www.google.com/maps/search/?api=1&query=WIP&query_place_id=ChIJkdwO2mmRW0gRi-ksrpOK5ls",
    "searchPageUrl": "https://www.google.com/maps/search/ALL_PLACES_NO_SEARCH/@53.304661890806955,-9.031607371042677,16z",
    "searchString": "ALL_PLACES_NO_SEARCH",
    "language": "en",
    "rank": 66,
    "isAdvertisement": false,
    "kgmid": "/g/1q62kkb73"
  },
  {
    "title": "Windsor MotorMall Galway",
    "price": null,
    "categoryName": "Auto market",
    "address": "Monivea Rd, Galway, H91 Y673, Ireland",
    "neighborhood": null,
    "street": "Monivea Rd",
    "city": "Galway",
    "postalCode": "H91 Y673",
    "state": null,
    "countryCode": "IE",
    "website": "http://www.windsor.ie/",
    "phone": "+353 91 770 707",
    "phoneUnformatted": "+35391770707",
    "claimThisBusiness": false,
    "location": {
      "lat": 53.2894427,
      "lng": -9.0066425
    },
    "totalScore": 4.4,
    "permanentlyClosed": false,
    "temporarilyClosed": false,
    "placeId": "ChIJyeeS80mRW0gRARRFYcj8Xdc",
    "categories": [
      "Auto market",
      "Auto machine shop",
      "Car repair and maintenance service",
      "Citroen dealer",
      "Dacia dealer",
      "Mazda dealer",
      "Nissan dealer",
      "Renault dealer"
    ],
    "fid": "0x485b9149f392e7c9:0xd75dfcc861451401",
    "cid": "15518837828544173057",
    "reviewsCount": 524,
    "imageCategories": [],
    "scrapedAt": "2025-11-22T11:42:21.432Z",
    "googleFoodUrl": null,
    "hotelAds": [],
    "openingHours": [
      {
        "day": "Monday",
        "hours": "9 AM to 6 PM"
      },
      {
        "day": "Tuesday",
        "hours": "9 AM to 6 PM"
      },
      {
        "day": "Wednesday",
        "hours": "9 AM to 6 PM"
      },
      {
        "day": "Thursday",
        "hours": "9 AM to 6 PM"
      },
      {
        "day": "Friday",
        "hours": "9 AM to 6 PM"
      },
      {
        "day": "Saturday",
        "hours": "10 AM to 3 PM"
      },
      {
        "day": "Sunday",
        "hours": "Closed"
      }
    ],
    "peopleAlsoSearch": [],
    "placesTags": [],
    "reviewsTags": [],
    "additionalInfo": {
      "Service options": [
        {
          "In-store shopping": true
        },
        {
          "Onsite services": true
        }
      ],
      "Accessibility": [
        {
          "Wheelchair accessible entrance": true
        },
        {
          "Wheelchair accessible parking lot": true
        },
        {
          "Wheelchair accessible restroom": true
        },
        {
          "Wheelchair accessible seating": true
        }
      ],
      "Amenities": [
        {
          "Restroom": true
        }
      ],
      "Payments": [
        {
          "Credit cards": true
        },
        {
          "Debit cards": true
        },
        {
          "NFC mobile payments": true
        }
      ]
    },
    "gasPrices": [],
    "url": "https://www.google.com/maps/search/?api=1&query=Windsor%20MotorMall%20Galway&query_place_id=ChIJyeeS80mRW0gRARRFYcj8Xdc",
    "searchPageUrl": "https://www.google.com/maps/search/ALL_PLACES_NO_SEARCH/@53.304661890806955,-9.031607371042677,16z",
    "searchString": "ALL_PLACES_NO_SEARCH",
    "language": "en",
    "rank": 67,
    "isAdvertisement": false,
    "kgmid": "/g/1tjfg7jl"
  },
  {
    "title": "Connolly's Hyundai Galway",
    "price": null,
    "categoryName": "Car dealer",
    "address": "Ballybrit, Galway, H91 XW13, Ireland",
    "neighborhood": "Ballybrit",
    "street": null,
    "city": "Galway",
    "postalCode": "H91 XW13",
    "state": null,
    "countryCode": "IE",
    "website": "https://www.connollys.ie/hyundai/?utm_source=gbp&utm_medium=organic",
    "phone": "+353 91 732 900",
    "phoneUnformatted": "+35391732900",
    "claimThisBusiness": false,
    "location": {
      "lat": 53.2898658,
      "lng": -9.0087547
    },
    "totalScore": 4.8,
    "permanentlyClosed": false,
    "temporarilyClosed": false,
    "placeId": "ChIJxdElFUqRW0gREaxPptQUffI",
    "categories": [
      "Car dealer",
      "Hyundai dealer",
      "Motor vehicle dealer",
      "Used car dealer"
    ],
    "fid": "0x485b914a1525d1c5:0xf27d14d4a64fac11",
    "cid": "17473145032823254033",
    "reviewsCount": 1045,
    "imageCategories": [],
    "scrapedAt": "2025-11-22T11:42:21.432Z",
    "googleFoodUrl": null,
    "hotelAds": [],
    "openingHours": [
      {
        "day": "Monday",
        "hours": "8 AM to 6 PM"
      },
      {
        "day": "Tuesday",
        "hours": "8 AM to 6 PM"
      },
      {
        "day": "Wednesday",
        "hours": "8 AM to 6 PM"
      },
      {
        "day": "Thursday",
        "hours": "8 AM to 6 PM"
      },
      {
        "day": "Friday",
        "hours": "8 AM to 6 PM"
      },
      {
        "day": "Saturday",
        "hours": "9 AM to 4 PM"
      },
      {
        "day": "Sunday",
        "hours": "Closed"
      }
    ],
    "peopleAlsoSearch": [],
    "placesTags": [],
    "reviewsTags": [],
    "additionalInfo": {
      "Service options": [
        {
          "Delivery": true
        },
        {
          "In-store shopping": true
        }
      ],
      "Accessibility": [
        {
          "Wheelchair accessible parking lot": true
        }
      ],
      "Offerings": [
        {
          "Used goods": true
        }
      ],
      "Payments": [
        {
          "Checks": true
        },
        {
          "Debit cards": true
        },
        {
          "NFC mobile payments": true
        },
        {
          "Credit cards": true
        }
      ]
    },
    "gasPrices": [],
    "url": "https://www.google.com/maps/search/?api=1&query=Connolly's%20Hyundai%20Galway&query_place_id=ChIJxdElFUqRW0gREaxPptQUffI",
    "searchPageUrl": "https://www.google.com/maps/search/ALL_PLACES_NO_SEARCH/@53.304661890806955,-9.031607371042677,16z",
    "searchString": "ALL_PLACES_NO_SEARCH",
    "language": "en",
    "rank": 68,
    "isAdvertisement": false,
    "kgmid": "/g/12hss50q3"
  },
  {
    "title": "National Driver Licence Service (NDLS)",
    "price": null,
    "categoryName": "Driver's license office",
    "address": "Ballybrit Business Park Block 1, CityEast, Co. Galway, H91 D5CN, Ireland",
    "neighborhood": null,
    "street": "Ballybrit Business Park Block 1, CityEast",
    "city": "Galway",
    "postalCode": "H91 D5CN",
    "state": null,
    "countryCode": "IE",
    "website": "https://www.ndls.ie/",
    "phone": "+353 818 700 800",
    "phoneUnformatted": "+353818700800",
    "claimThisBusiness": false,
    "location": {
      "lat": 53.2909856,
      "lng": -9.0046932
    },
    "totalScore": 4,
    "permanentlyClosed": false,
    "temporarilyClosed": false,
    "placeId": "ChIJVf8ZqUmRW0gRiiGJQ4AaEwU",
    "categories": [
      "Driver's license office"
    ],
    "fid": "0x485b9149a919ff55:0x5131a804389218a",
    "cid": "365665132938338698",
    "reviewsCount": 209,
    "imageCategories": [],
    "scrapedAt": "2025-11-22T11:42:21.432Z",
    "googleFoodUrl": null,
    "hotelAds": [],
    "openingHours": [
      {
        "day": "Monday",
        "hours": "9 AM to 5 PM"
      },
      {
        "day": "Tuesday",
        "hours": "9 AM to 5 PM"
      },
      {
        "day": "Wednesday",
        "hours": "9 AM to 5 PM"
      },
      {
        "day": "Thursday",
        "hours": "9 AM to 5 PM"
      },
      {
        "day": "Friday",
        "hours": "9 AM to 5 PM"
      },
      {
        "day": "Saturday",
        "hours": "9 AM to 2 PM"
      },
      {
        "day": "Sunday",
        "hours": "Closed"
      }
    ],
    "peopleAlsoSearch": [],
    "placesTags": [],
    "reviewsTags": [],
    "additionalInfo": {
      "Accessibility": [
        {
          "Wheelchair accessible entrance": true
        },
        {
          "Wheelchair accessible parking lot": true
        }
      ],
      "Amenities": [
        {
          "Restroom": true
        }
      ],
      "Payments": [
        {
          "Credit cards": true
        },
        {
          "Debit cards": true
        },
        {
          "NFC mobile payments": true
        }
      ]
    },
    "gasPrices": [],
    "url": "https://www.google.com/maps/search/?api=1&query=National%20Driver%20Licence%20Service%20(NDLS)&query_place_id=ChIJVf8ZqUmRW0gRiiGJQ4AaEwU",
    "searchPageUrl": "https://www.google.com/maps/search/ALL_PLACES_NO_SEARCH/@53.304661890806955,-9.031607371042677,16z",
    "searchString": "ALL_PLACES_NO_SEARCH",
    "language": "en",
    "rank": 69,
    "isAdvertisement": false,
    "kgmid": "/g/1q5bntsjf"
  },
  {
    "title": "Pizza Max Headford Road, Galway",
    "price": null,
    "categoryName": "Pizza restaurant",
    "address": "Unit 1 Bóthar An Chóiste, Galway, H91 Y5X6, Ireland",
    "neighborhood": null,
    "street": "Unit 1 Bóthar An Chóiste",
    "city": "Galway",
    "postalCode": "H91 Y5X6",
    "state": null,
    "countryCode": "IE",
    "website": "https://pizzamax.ie/",
    "phone": "+353 91 765 881",
    "phoneUnformatted": "+35391765881",
    "claimThisBusiness": false,
    "location": {
      "lat": 53.2964601,
      "lng": -9.0313629
    },
    "totalScore": 4.1,
    "permanentlyClosed": false,
    "temporarilyClosed": false,
    "placeId": "ChIJX6iwUwOXW0gRRG2K31k9L4o",
    "categories": [
      "Pizza restaurant"
    ],
    "fid": "0x485b970353b0a85f:0x8a2f3d59df8a6d44",
    "cid": "9957244757351230788",
    "reviewsCount": 72,
    "imageCategories": [],
    "scrapedAt": "2025-11-22T11:42:21.432Z",
    "googleFoodUrl": null,
    "hotelAds": [],
    "openingHours": [
      {
        "day": "Monday",
        "hours": "4 PM to 1 AM"
      },
      {
        "day": "Tuesday",
        "hours": "4 PM to 1 AM"
      },
      {
        "day": "Wednesday",
        "hours": "4 PM to 1 AM"
      },
      {
        "day": "Thursday",
        "hours": "4 PM to 1 AM"
      },
      {
        "day": "Friday",
        "hours": "4 PM to 2 AM"
      },
      {
        "day": "Saturday",
        "hours": "4 PM to 2 AM"
      },
      {
        "day": "Sunday",
        "hours": "4 PM to 1 AM"
      }
    ],
    "peopleAlsoSearch": [],
    "placesTags": [],
    "reviewsTags": [],
    "additionalInfo": {
      "Service options": [
        {
          "No-contact delivery": true
        },
        {
          "Delivery": true
        },
        {
          "Takeout": true
        },
        {
          "Dine-in": true
        }
      ],
      "Popular for": [
        {
          "Lunch": true
        },
        {
          "Dinner": true
        },
        {
          "Solo dining": true
        }
      ],
      "Accessibility": [
        {
          "Wheelchair accessible entrance": true
        },
        {
          "Wheelchair accessible parking lot": true
        }
      ],
      "Offerings": [
        {
          "Late-night food": true
        },
        {
          "Quick bite": true
        },
        {
          "Small plates": true
        }
      ],
      "Dining options": [
        {
          "Lunch": true
        },
        {
          "Dinner": true
        }
      ],
      "Amenities": [
        {
          "Restroom": true
        }
      ],
      "Atmosphere": [
        {
          "Casual": true
        }
      ],
      "Crowd": [
        {
          "College students": true
        },
        {
          "Family-friendly": true
        },
        {
          "LGBTQ+ friendly": true
        },
        {
          "Transgender safespace": true
        }
      ],
      "Payments": [
        {
          "Credit cards": true
        },
        {
          "Debit cards": true
        },
        {
          "NFC mobile payments": true
        },
        {
          "Credit cards": true
        }
      ],
      "Parking": [
        {
          "Free parking lot": true
        }
      ],
      "Pets": [
        {
          "Dogs allowed": true
        },
        {
          "Dogs allowed inside": true
        },
        {
          "Dogs allowed outside": true
        }
      ]
    },
    "gasPrices": [],
    "url": "https://www.google.com/maps/search/?api=1&query=Pizza%20Max%20Headford%20Road%2C%20Galway&query_place_id=ChIJX6iwUwOXW0gRRG2K31k9L4o",
    "searchPageUrl": "https://www.google.com/maps/search/ALL_PLACES_NO_SEARCH/@53.304661890806955,-9.031607371042677,16z",
    "searchString": "ALL_PLACES_NO_SEARCH",
    "language": "en",
    "rank": 70,
    "isAdvertisement": false,
    "kgmid": "/g/11tfs_w3nj"
  }
]